iata_code|icao_code|name_rus|name_eng|city_rus|city_eng|country_rus|country_eng|iso_code|latitude|longitude|runway_elevation
AAA|NTGA|Анаа|Anaa|Анаа|Anaa|Французская Полинезия|French Polynesia|PF|-17.355000|-145.508333|3
AAB|YARY||Arrabury||Arrabury|Австралия|Australia|AU|-26.690556|141.047500|101
AAC|HEAR||Al Arish International Airport|Аль-Ариш|Al Arish|Египет|Egypt|EG|31.073333|33.835833|37
AAD|TVSV||Ad-Dabbah||Ad-Dabbah|Судан|Sudan|SD|17.592777777778|33.959166666667|
AAE|DABB||Les Salines||Annaba|Алжир|Algeria|DZ|36.822222|7.809444|5
AAF|KAAF||Municipal||Apalachicola|США|United States|US|29.727607|-85.027442|6
AAG|SSYA||Arapoti||Arapoti|Бразилия|Brazil|BR|-24.103875|-49.789078|805
AAH|EDKA||Aachen/Merzbruck|Аахен|Aachen|Германия|Germany|DE|50.823056|6.186111|190
AAI|SWRA||Arraias||Arraias|Бразилия|Brazil|BR|-13.025|-46.884|586
AAJ|SMCA||Cayana Airstrip|Аварадам|Awaradam|Суринам|Suriname|SR|3.898611|-55.577778|
AAK|NGUK|Аранука|Aranuka|Аранука|Aranuka|Кирибати|Kiribati|KI|0.185278|173.636667|2
AAL|EKYT|Аальборг|Aalborg|Аальбург|Aalborg|Дания|Denmark|DK|57.092789|9.849164|3
AAM|FAMD|Мала-Мала|Mala Mala|Мала-Мала|Mala Mala|ЮАР|South Africa|ZA|-24.818111|31.544584|343
AAN|OMAL|Эль-Аин|Al Ain|Аль-Айн|Al Ain|ОАЭ|United Arab Emirates|AE|24.261667|55.609167|265
AAO|SVAN|Анако|Anaco|Анако|Anaco|Венесуэла|Venezuela|VE|9.430225|-64.470725|220
AAP|BGAG||Andrau Airpark||Houston, TX|США|United States|US|72.886944|-55.596111|13
AAQ|URKA|Витязево|Vityazevo|Анапа|Anapa|Россия|Russian Federation|RU|45.002097|37.347272|53
AAR|EKAH||Aarhus Airport|Аарус|Aarhus|Дания|Denmark|DK|56.300017|10.619008|25
AAS|||Apalapsili||Apalapsili|Индонезия|Indonesia|ID|-3.883|139.283|914
AAT|ZWAT|Алтай|Altay|Алтай|Altay|Китай|China|CN|47.749|88.089|
AAU|NSAU|Асау|Asau|Асау|Asau|Самоа|Samoa|WS|-13.505778|-172.627972|2
AAV|RPMA||Allah Valley||Surallah|Филиппины|Philippines|PH|6.366817|124.751294|201
AAW|OPAB||Abbottabad||Abbottabad|Пакистан|Pakistan|PK|34.150|73.217|
AAX|SBAX||Araxa||Araxa|Бразилия|Brazil|BR|-19.563247|-46.960358|999
AAY|OYGD|Аль-Гайда|Al Ghaydah|Аль-Гайда|Al Ghaydah|Йемен|Yemen|YE|16.191666|52.175000|41
AAZ|MGQZ||Ambriz||Ambriz|Ангола|Angola|AO|14.865550|-91.501981|2371
ABA|UNAA|Абакан|Abakan|Абакан|Abakan|Россия|Russian Federation|RU|53.740000|91.385000|253
ABB|EGUD||RAF Station|Абингдон|Abingdon|Великобритания|United Kingdom|GB|51.690556|-1.316667|
ABC|LEAB||Los Llanos|Албасет|Albacete|Испания|Spain|ES|38.948528|-1.863517|702
ABD|OIAA|Абадан|Abadan|Абадан|Abadan|Иран|Iran|IR|30.371111|48.228333|6
ABF|NGAB|Абайянг|Abaiang|Абайянг|Abaiang|Кирибати|Kiribati|KI|1.798611|173.040556|3
ABG|YABI|Абингдон|Abingdon|Абингдон|Abingdon|Австралия|Australia|AU|-17.617|143.167|183
ABH|YAPH|Альфа|Alpha||Alpha|Австралия|Australia|AU|-23.646111|146.583611|383
ABI|KABI||Municipal||Abilene|США|United States|US|32.411306|-99.681889|546
ABJ|DIAP||Felix Houphouet Boigny|Абиджан|Abidjan|Кот д&#039;Ивуар|Cote D&#039;Ivoire|CI|5.261386|-3.926294|6
ABK|HAKD|Кабри-Дар|Kabri Dar|Кабри-Дар|Kabri Dar|Эфиопия|Ethiopia|ET|6.734|44.253|549
ABL|PAFM|Амблер|Ambler||Ambler|США|United States|US|67.106314|-157.857472|102
ABM|YBAM||Bamaga Injinoo||Bamaga, Queensland|Австралия|Australia|AU|-10.950833|142.459444|10
ABN|SMBN|Альбина|Albina|Альбина|Albina|Суринам|Suriname|SR|5.513|-54.050|12
ABO|DIAO||Aboisso||Aboisso|Кот д&#039;Ивуар|Cote D&#039;Ivoire|CI|5.433|-3.267|29
ABP||Аткамба|Atkamba|Аткамба|Atkamba|Папуа - Новая Гвинея|Papua New Guinea|PG|-6.050|141.083|122
ABQ|KABQ||Albuquerque International|Альбукерк|Albuquerque|США|United States|US|35.040194|-106.609194|1632
ABR|KABR||Municipal||Aberdeen|США|United States|US|45.449056|-98.421833|397
ABS|HEBL|Абу-Симбель|Abu Simbel|Абу-Симбель|Abu Simbel|Египет|Egypt|EG|22.375953|31.611722|188
ABT|OEBA||Al-Aqiq||Al-Baha|Саудовская Аравия|Saudi Arabia|SA|20.296139|41.634277|1672
ABU|WATA||Atambua||Atambua|Индонезия|Indonesia|ID|-9.074444|124.904444|437
ABV|DNAA||Nnamdi Azikiwe International Airport|Абуджа|Abuja|Нигерия|Nigeria|NG|9.006792|7.263172|342
ABW||Абау|Abau|Абау|Abau|Папуа - Новая Гвинея|Papua New Guinea|PG|-10.200|148.733|3
ABX|YMAY|Элбери|Albury|Элбери|Albury|Австралия|Australia|AU|-36.067778|146.958056|164
ABY|KABY||Dougherty County|Олбани|Albany|США|United States|US|31.535515|-84.194473|60
ABZ|EGPD||Dyce||Aberdeen|Великобритания|United Kingdom|GB|57.201944|-2.197778|66
ACB|KACB||Antrim County||Bellaire|США|United States|US|44.988576|-85.198355|190
ACC|DGAA|Котока|Kotoka||Accra|Гана|Ghana|GH|5.605186|-0.166786|62
ACD|SKAD|Аканди|Acandi|Аканди|Acandi|Колумбия|Colombia|CO|8.500|-73.633|15
ACE|GCRR|Ланцароте|Lanzarote|Арресиф|Arrecife|Испания|Spain|ES|28.945464|-13.605225|14
ACH|LSZR||Altenrhein||Altenrhein|Швейцария|Switzerland|CH|47.485033|9.560775|398
ACI|EGJA||The Blaye|Элдерни|Alderney|Великобритания|United Kingdom|GB|49.706111|-2.214722|88
ACJ|KACJ|Анурадхапура|Anuradhapura|Анурадхапура|Anuradhapura|Шри-Ланка|Sri Lanka|LK|32.110799|-84.188848|143
ACK|KACK||Nantucket Memorial||Nantucket|США|United States|US|41.253111|-70.060306|14
ACL|||Aguaclara||Aguaclara|Колумбия|Colombia|CO|4.749|-72.994|315
ACM||Арика|Arica|Арика|Arica|Колумбия|Colombia|CO|-2.133|-71.783|
ACN|MMCC||International|Сиудад-Акуна|Ciudad Acuna|Мексика|Mexico|MX|29.333917|-101.100892|430
ACO|LSZD|Аскона|Ascona|Аскона|Ascona|Швейцария|Switzerland|CH|46.157778|8.781944|200
ACP|OITM||Sahand||Sahand|Иран|Iran|IR|37.348017|46.127903|1340
ACR|SKAC|Араракуара|Araracuara|Араракуара|Araracuara|Колумбия|Colombia|CO|-0.601111|-72.397778|381
ACS|UNKS|Ачинск|Achinsk|Ачинск|Achinsk|Россия|Russian Federation|RU|56.268333|90.570833|315
ACT|KACT||Municipal|Вако|Waco|США|United States|US|31.611700|-97.230284|157
ACU||Ахутупо|Achutupo|Ахутупо|Achutupo|Панама|Panama|PA|9.183|-78.017|11
ACV|KACV||Arcata||Arcata|США|United States|US|40.978111|-124.108611|67
ACX|ZUYI||Xingyi||Xingyi|Китай|China|CN|25.155|104.971|
ACY|KACY||Atlantic City Intl|Атлантик Сити|Atlantic City|США|United States|US|39.457583|-74.577167|23
ACZ|OIZB||Zabol A/P|Забол|Zabol|Иран|Iran|IR|31.098333|61.543889|496
ADA|LTAF|Адана|Adana|Адана|Adana|Турция|Turkey|TR|36.982166|35.280388|20
ADB|LTBJ||Adnan Menderes|Измир|Izmir|Турция|Turkey|TR|38.292392|27.156953|126
ADC|KADC||Andakombe||Andakombe|Папуа - Новая Гвинея|Papua New Guinea|PG|46.450270|-95.210955|417
ADD|HAAB||Bole International|Аддис Абеба|Addis Ababa|Эфиопия|Ethiopia|ET|8.977889|38.799319|2334
ADE|OYAA|Международный|International|Аден|Aden|Йемен|Yemen|YE|12.829542|45.028792|2
ADF|LTCP||Adiyaman||Adiyaman|Турция|Turkey|TR|37.731369|38.468936|675
ADG|KADG||Lenawee County||Adrian|США|United States|US|41.867674|-84.077306|243
ADH|UEEA|Алдан|Aldan|Алдан|Aldan|Россия|Russian Federation|RU|58.602778|125.408889|683
ADI|FYAR||Arandis||Arandis|Намибия|Namibia|NA|-22.462223|14.980000|581
ADJ|OJAM||Marka International Airport|Амман|Amman|Иордания|Jordan|JO|31.972703|35.991569|779
ADK|PADK||Adak Island NS||Adak Island|США|United States|US|51.877964|-176.646031|5
ADL|YPAD||Adelaide International Airport|Аделаида|Adelaide|Австралия|Australia|AU|-34.945000|138.530556|6
ADM|KADM||Ardmore Municipal Arpt|Ардмор|Ardmore|США|United States|US|34.304250|-97.020583|237
ADN|SKAN|Андес|Andes|Андес|Andes|Колумбия|Colombia|CO|5.656|-75.879|1189
ADO|YAMK||Andamooka||Andamooka|Австралия|Australia|AU|-30.437778|137.137222|76
ADP|VCCA||Ampara||Ampara|Шри-Ланка|Sri Lanka|LK|8.301486|80.427900|99
ADQ|PADQ||Kodiak Airport||Kodiak|США|United States|US|57.749968|-152.493855|24
ADR|KPHH||Andrews||Andrews|США|United States|US|33.451700|-79.526177|8
ADS|KADS||Addison Airport|Даллас|Dallas|США|United States|US|32.968559|-96.836448|196
ADT|KADH|Ада|Ada|Ада|Ada|США|United States|US|34.804262|-96.671200|310
ADU|OITL||Ardabil||Ardabil|Иран|Iran|IR|38.325678|48.424356|1315
ADV|EGWA|Эндовер|Andover|Эндовер|Andover|Великобритания|United Kingdom|GB|51.207|-1.528|87
ADW|KADW||Andrews AFB||Camp Springs|США|United States|US|38.810833|-76.867000|85
ADX|EGQL||Leuchars||St Andrews|Великобритания|United Kingdom|GB|56.372889|-2.868444|12
ADY|FAAL|Оллдейз|Alldays|Оллдейз|Alldays|ЮАР|South Africa|ZA|-22.679017|29.055517|792
ADZ|SKSP|Остров Сан Андрес|San Andres Island|Остров Сан Андрес|San Andres Island|Колумбия|Colombia|CO|12.583683|-81.710919|6
AEA|NGTB|Абемама-Атолл|Abemama Atoll|Абемама-Атолл|Abemama Atoll|Кирибати|Kiribati|KI|0.490833|173.828611|2
AED|KTDO||Aleneva||Aleneva|США|United States|US|58.03333333|-152.9|
AEG|WIME|Эк-Годан|Aek Godang|Эк-Годан|Aek Godang|Индонезия|Indonesia|ID|1.400103|99.430453|281
AEH|FTTC||Abecher||Abecher|Чад|Chad|TD|13.847000|20.844333|545
AEI|OPKC|Альгесирас|Algeciras|Альгесирас|Algeciras|Испания|Spain|ES|0|0|
AEK||Асеки|Aseki|Асеки|Aseki|Папуа - Новая Гвинея|Papua New Guinea|PG|-7.350|146.183|1189
AEL|KAEL|Альберт Ли|Albert Lea|Альберт Ли|Albert Lea|США|United States|US|43.681528|-93.367250|384
AEO|GQNA||Aioun El Atrouss||Aioun El Atrouss|Мавритания|Mauritania|MR|16.711293|-9.637883|290
AEP|SABE||Arpt. Jorge Newbery|Буэнос-Айрес|Buenos Aires|Аргентина|Argentina|AR|-34.559175|-58.415606|5
AER|URSS|Адлер - Сочи|Adler - Sochi|Адлер|Adler|Россия|Russian Federation|RU|43.449928|39.956589|27
AES|ENAL|Вигра|Vigra||Aalesund|Норвегия|Norway|NO|62.560372|6.110164|21
AET|PFAL||Allakaket||Allakaket|США|United States|US|66.551833|-152.622167|134
AEU|OIBA||Abu Musa||Abu Musa|Иран|Iran|IR|25.875742|55.032994|7
AEX|KAEX|Александрия международный|Alexandria International||Alexandria, LA|США|United States|US|31.327372|-92.548556|27
AEY|BIAR|Акурейри|Akureyri|Акурейри|Akureyri|Исландия|Iceland|IS|65.658610|-18.072222|2
AFA|SAMR|Сан-Рафаэль|San Rafael|Сан-Рафаэль|San Rafael|Аргентина|Argentina|AR|-34.588314|-68.403854|753
AFD|FAPA|Порт Альфред|Port Alfred|Порт Альфред|Port Alfred|ЮАР|South Africa|ZA|-33.554167|26.879722|83
AFF|KAFF||USAF Academy Airstrip|Колорадо Спрингз|Colorado Springs|США|United States|US|38.969715|-104.812831|2003
AFI|SKAM|Амалфи|Amalfi|Амалфи|Amalfi|Колумбия|Colombia|CO|6.916667|-75.066667|1393
AFK|KAFK||Kondavattavan Tank||Ampara|Шри-Ланка|Sri Lanka|LK|40.605444|-95.867750|355
AFL|SBAT|Алта-Флореста|Alta Floresta|Алта-Флореста|Alta Floresta|Бразилия|Brazil|BR|-9.866092|-56.106206|289
AFN|KAFN||Municipal||Jaffrey|США|United States|US|42.805134|-72.003022|317
AFO|KAFO||Municipal|Афтон|Afton|США|United States|US|42.708778|-110.942167|1896
AFR||Афоре|Afore|Афоре|Afore|Папуа - Новая Гвинея|Papua New Guinea|PG|-9.133|148.383|701
AFS|UTSN|Зарафшан|Zarafshan|Зарафшан|Zarafshan|Узбекистан|Uzbekistan|UZ|41.613611|64.232777|
AFT|AGAF||Afutara Aerodrome|Афутара|Afutara|Соломоновы острова|Solomon Islands|SB|-9.191111|160.949167|
AFW|KAFW||Fort Worth Alliance||Fort Worth, TX|США|United States|US|32.987639|-97.318806|220
AFY|LTAH|Афион|Afyon|Афион|Afyon|Турция|Turkey|TR|38.726425|30.601114|1009
AFZ|OIMS||Sabzevar||Sabzevar|Иран|Iran|IR|36.168083|57.595183|917
AGA|GMAD|Агадир Альмассира|Agadir Almassira|Агадир|Agadir|Марокко|Morocco|MA|30.324997|-9.413067|76
AGB|EDMA||Augsburg - Muehlhausen|Мюнхен|Munich|Германия|Germany|DE|48.425158|10.931764|462
AGC|KAGC||Allegheny County|Питтсборо|Pittsburgh|США|United States|US|40.354401|-79.930169|382
AGD|WASG|Ангги|Anggi|Ангги|Anggi|Индонезия|Indonesia|ID|-1.383|133.867|2150
AGE|EDWG||Flugplatz|Вангерооге|Wangerooge|Германия|Germany|DE|53.788333|7.920556|2
AGF|LFBA||La Garenne|Аген|Agen|Франция|France|FR|44.174714|0.590619|62
AGG||Ангорам|Angoram|Ангорам|Angoram|Папуа - Новая Гвинея|Papua New Guinea|PG|-4.050|144.067|14
AGH|ESTA||Angelholm||Angelholm/Helsingborg|Швеция|Sweden|SE|56.296072|12.847139|21
AGI|SMWA|Вагенинген|Wageningen|Вагенинген|Wageningen|Суринам|Suriname|SR|5.833|-56.650|8
AGJ|RORA|Агуни|Aguni|Агуни|Aguni|Япония|Japan|JP|26.592499|127.240833|12
AGK||Кагуа|Kagua|Кагуа|Kagua|Папуа - Новая Гвинея|Papua New Guinea|PG|-6.383|143.850|1554
AGL||Ванигела|Wanigela|Ванигела|Wanigela|Папуа - Новая Гвинея|Papua New Guinea|PG|-9.333|149.150|15
AGM|BGAM||Tasiilaq||Tasiilaq|Гренландия|Greenland|GL|65.612222|-37.618333|7
AGN|PAGN|Ангун|Angoon||Angoon|США|United States|US|57.503555|-134.585094|0
AGO|KAGO||Municipal||Magnolia|США|United States|US|33.227468|-93.216992|97
AGP|LEMG||Pablo Ruiz Picasso|Малага|Malaga|Испания|Spain|ES|36.674900|-4.499106|16
AGQ|LGAG|Агринио|Agrinion|Агринио|Agrinion|Греция|Greece|GR|38.602022|21.351208|47
AGR|VIAG||Kheria|Агра|Agra|Индия|India|IN|27.155831|77.960892|168
AGS|KAGS||Bush Field||Augusta|США|United States|US|33.369943|-81.964500|44
AGT|SGES||Alejo Garcia|Кудад-дель-Эсте|Ciudad Del Este|Парагвай|Paraguay|PY|-25.455500|-54.843592|258
AGU|MMAS||Aguascalients|Агуаскалиентес|Aguascalientes|Мексика|Mexico|MX|21.705558|-102.317858|1863
AGV|SVAC|Акарикуа|Acarigua|Акарикуа|Acarigua|Венесуэла|Venezuela|VE|9.553422|-69.237536|226
AGW|||Agnew||Agnew|Австралия|Australia|AU|-12.145556|142.149167|49
AGX|VOAT|Агатти-Айленд|Agatti Island|Агатти-Айленд|Agatti Island|Индия|India|IN|10.823656|72.176042|4
AGY|||Argyle Downs||Argyle Downs|Австралия|Australia|AU|-16.333|128.767|88
AGZ|FAAG|Аггенейз|Aggeneys|Аггенейз|Aggeneys|ЮАР|South Africa|ZA|-29.281767|18.813869|807
AHA|RORG||Naha Air Force Base|Окинава|Okinawa|Япония|Japan|JP|26.2|127.65|
AHB|OEAB|Абха|Abha|Абха|Abha|Саудовская Аравия|Saudi Arabia|SA|18.240367|42.656625|2090
AHC|KAHC||Amedee AAF||Herlong|Норвегия|Norway|NO|40.265918|-120.150613|1223
AHD|KAHD||Downtown|Ардмор|Ardmore|США|United States|US|34.146989|-97.122652|257
AHE|NTHE||Ahe Airport||Ahe|Французская Полинезия|French Polynesia|PF|-14.427778|-146.255000|3
AHF|||Municipal||Arapahoe|Гватемала|Guatemala|GT|40.339451|-99.906513|692
AHH|KAHH||Municipal||Amery|США|United States|US|45.281148|-92.375392|332
AHI|WAPA|Амахаи|Amahai|Амахаи|Amahai|Индонезия|Indonesia|ID|-3.348|128.926|56
AHL|SYAH|Аисхалтон|Aishalton|Аисхалтон|Aishalton|Гайана|Guyana|GY|2.473604|-59.321110|179
AHN|KAHN|Афины|Athens|Афины|Athens|Греция|Greece|GR|33.948595|-83.326347|246
AHO|LIEA||Fertilia||Alghero|Италия|Italy|IT|40.632133|8.290772|27
AHS||Ахуас|Ahuas|Ахуас|Ahuas|Гондурас|Honduras|HN|15.472222|-84.352222|30
AHT|PHKO|Ам-Тиман|Amchitka|Ам-Тиман|Amchitka|США|United States|US|51.5|179|69
AHU|GMTA||Charif Al Idrissi||Al Hoceima|Марокко|Morocco|MA|35.177103|-3.839525|29
AHY||Амбатолахи|Ambatolahy|Амбатолахи|Ambatolahy|Мадагаскар|Madagascar|MG|-20.000|45.533|90
AHZ|LFHU||Alpe D Huez||Alpe D Huez|Франция|France|FR|45.088333|6.084722|1860
AIA|KAIA|Альянс|Alliance||Alliance|США|United States|US|42.053222|-102.803778|1198
AIB|KGRK|Анита Бэй|Anita Bay||Anita Bay|США|United States|US|56.233333333333|-132.38333333333|
AIC||Айрок|Airok||Airok, Ailinglaplap|Маршалловы острова|Marshall Islands|MH|7.100|171.233|
AID|KAID||Municipal||Anderson|США|United States|US|40.108611|-85.613000|280
AIE||Айоме|Aiome|Айоме|Aiome|Папуа - Новая Гвинея|Papua New Guinea|PG|-5.133|144.717|107
AIF|SBAS||Assis||Assis|Бразилия|Brazil|BR|-22.638564|-50.455914|564
AIG|FEFY|Ялинга|Yalinga|Ялинга|Yalinga|Центральноафриканская Республика|Central African Republic|CF|6.520|23.260|602
AIH|OPKC||Aiambak||Aiambak|Папуа - Новая Гвинея|Papua New Guinea|PG|-7.35|141.26666666667|
AII|HDAS||Alisabieh||Alisabieh|Джибути|Djibouti|DJ|11.133|42.717|709
AIK|KAIK||Municipal||Aiken|США|United States|US|33.649376|-81.685036|161
AIL||Айлиганди|Ailigandi|Айлиганди|Ailigandi|Панама|Panama|PA|9.217|-78.017|2
AIM|||Ailuk Island||Ailuk Island|Маршалловы острова|Marshall Islands|MH|10.200|169.983|
AIN|PAWI||Wainwright||Wainwright|США|United States|US|70.638000|-159.994750|12
AIO|KAIO||Municipal||Atlantic|США|United States|US|41.403833|-95.048750|355
AIP|||Ailinglapalap Island||Ailinglapalap Island|Маршалловы острова|Marshall Islands|MH|7.267|168.817|
AIR|||Aripuana||Aripuana|Бразилия|Brazil|BR|-10.186389|-59.457500|
AIS|NGTR|Ароре-Айленд|Arorae Island|Ароре-Айленд|Arorae Island|Кирибати|Kiribati|KI|-2.616111|176.802500|2
AIT|NCAI|Аитутаки|Aitutaki|Аитутаки|Aitutaki|Острова Кука|Cook Islands|CK|-18.830922|-159.764233|4
AIU|NCAT||Atiu Island||Atiu Island|Острова Кука|Cook Islands|CK|-19.967778|-158.119167|11
AIV|KAIV||George Downer||Aliceville|США|United States|US|33.106465|-88.197792|46
AIW|OPKC||Ai-ais||Ai-ais|Намибия|Namibia|NA|-27.983333333333|17.583055555556|
AIY|KAIY||Bader Field|Атлантик Сити|Atlantic City|США|United States|US|39.366666666667|-74.45|3
AIZ|KAIZ||Lee C Fine Memorial||Kaiser/Lake Ozark|США|United States|US|38.096035|-92.549488|265
AJA|LFKJ|Кампо Дель Оро|Campo Dell Oro|Аяччио|Ajaccio|Франция|France|FR|41.923889|8.802500|5
AJF|OESK|Джуф|Jouf||Sakaka Al Jouf|Саудовская Аравия|Saudi Arabia|SA|29.785133|40.100006|689
AJI|LTCO||A&amp;#287;ri|Агри|Agri|Италия|Italy|IT|39.654569|43.027150|1665
AJJ|GQNJ|Акжужт|Akjoujt|Акжужт|Akjoujt|Мавритания|Mauritania|MR|19.731667|-14.379444|123
AJK|OIHR||Araak||Araak|Иран|Iran|IR|34.138147|49.847292|1658
AJL|VEAZ|Айзаул|Aizawl|Айзаул|Aizawl|Индия|India|IN|23.746603|92.802767|305
AJN|FMCV||Ouani|Анжуан|Anjouan|Коморские острова|Comoros|KM|-12.131667|44.430279|19
AJO||Альюф|Aljouf|Альюф|Aljouf|Йемен|Yemen|YE|15.717|44.250|
AJR|ESNX|Арвидсьяур|Arvidsjaur|Арвидсьяур|Arvidsjaur|Швеция|Sweden|SE|65.590278|19.281944|379
AJS||Абреохос|Abreojos|Абреохос|Abreojos|Мексика|Mexico|MX|26.727222|-113.559444|8
AJU|SBAR|Санта Мария|Santa Maria|Аракайю|Aracaju|Бразилия|Brazil|BR|-10.984000|-37.070333|7
AJY|DRZA||Agades||Agades|Нигер|Niger|NE|16.965997|8.000114|505
AKA|ZLAK|Анькан|Ankang|Анькан|Ankang|Китай|China|CN|32.708056|108.931389|
AKB|PAAK||Atka||Atka|США|United States|US|52.220586|-174.206183|17
AKC|KAKR||Fulton International||Akron/Canton|ЮАР|South Africa|ZA|41.037500|-81.466917|325
AKD|VAAK|Акола|Akola|Акола|Akola|Индия|India|IN|20.699006|77.058628|304
AKE||Акиени|Akieni|Акиени|Akieni|Габон|Gabon|GA|-1.129436|13.920506|506
AKF|HLKF|Куфра|Kufrah|Куфра|Kufrah|Ливия|Libya|LY|24.178728|23.313958|417
AKG||Ангуганак|Anguganak|Ангуганак|Anguganak|Папуа - Новая Гвинея|Papua New Guinea|PG|-3.550|142.217|259
AKH|OEPS||Prince Sultan Air Base||Al Kharj|Саудовская Аравия|Saudi Arabia|SA|24.062700|47.580536|503
AKI|PFAK||Akiak||Akiak|США|United States|US|60.902889|-161.230583|9
AKJ|RJEC|Асахикава|Asahikawa|Асахикава|Asahikawa|Япония|Japan|JP|43.670833|142.447500|220
AKK|PAKH||Akhiok SPB||Akhiok|США|United States|US|56.938691|-154.182556|13
AKL|NZAA||Auckland International|Окленд|Auckland|Новая Зеландия|New Zealand|NZ|-37.008056|174.791667|7
AKM||Закума|Zakouma|Закума|Zakouma|Чад|Chad|TD|10.900|19.817|415
AKN|PAKN||King Salmon||King Salmon|США|United States|US|58.676493|-156.648691|22
AKO|KAKO||Colorado Plains Regional Airport|Akron|Akron, CO|США|United States|US|40.175633|-103.222028|1437
AKP|PAKP||Anaktuvuk||Anaktuvuk|США|United States|US|68.133597|-151.743342|641
AKQ|WIAG||Gunung Batin|Астраксетра|Astraksetra|Индонезия|Indonesia|ID|-4.612|105.232|27
AKR|DNAK|Акере|Akure|Акере|Akure|Нигерия|Nigeria|NG|7.246739|5.301008|335
AKT|LCRA||Akrotiri Raf|Акротири|Akrotiri|Кипр|Cyprus|CY|34.590416|32.987861|23
AKU|ZWAK|Аксу|Aksu|Аксу|Aksu|Китай|China|CN|41.262500|80.291667|
AKV|CYKO||Akulivik||Akulivik|Канада|Canada|CA|60.818611|-78.148611|23
AKW|OIAG||Aghajari||Aghajari|Иран|Iran|IR|30.744450|49.677183|27
AKX|UATT|Актюбинск|Aktyubinsk|Актюбинск|Aktyubinsk|Казахстан|Kazakhstan|KZ|50.245833|57.206667|225
AKY|VYSW||Civil||Sittwe|Мьянма|Myanmar|MM|20.132708|92.872628|8
ALA|UAAA|Алматы|Almaty|Алматы|Almaty|Казахстан|Kazakhstan|KZ|43.352072|77.040508|681
ALB|KALB|Олбани международный|Albany International|Олбани|Albany|США|United States|US|42.749111|-73.801972|87
ALC|LEAL||Alicante El Altet|Аликанте|Alicante|Испания|Spain|ES|38.282169|-0.558156|43
ALD|SPAR|Алерта|Alerta|Алерта|Alerta|Перу|Peru|PE|-11.683|-69.333|243
ALE|||Alpine||Alpine|США|United States|US|30.384222|-103.683583|1376
ALF|ENAT|Альта|Alta|Алта|Alta|Норвегия|Norway|NO|69.976111|23.371667|3
ALG|DAAG||Houari Boumediene||Algiers|Алжир|Algeria|DZ|36.694444|3.216944|25
ALH|YABA|Олбани|Albany|Олбани|Albany|Австралия|Australia|AU|-34.943333|117.808889|71
ALI|KALI||International||Alice|США|United States|US|27.740889|-98.026944|54
ALJ|FAAB|Кортдум|Kortdoorn|Александер-Бей|Alexander Bay|ЮАР|South Africa|ZA|-28.575001|16.533332|30
ALK||Асела|Asela|Асела|Asela|Эфиопия|Ethiopia|ET|7.967|39.117|
ALL|LIMG|Албенга|Albenga|Албенга|Albenga|Италия|Italy|IT|44.050608|8.127428|45
ALM|KALM||Municipal|Аламогордо|Alamogordo|США|United States|US|32.839944|-105.990583|1280
ALN|KALN|Альтон|Alton||Alton|США|United States|US|38.889917|-90.045989|166
ALO|KALO|Ватерло|Waterloo|Ватерло|Waterloo|США|United States|US|42.557081|-92.400344|266
ALP|OSAP||Nejrab|Алеппо|Aleppo|Сирия|Syria|SY|36.180675|37.224358|389
ALQ|SSAL||Federal||Alegrete|Бразилия|Brazil|BR|-29.800274|-55.763054|110
ALR|NZLX|Александра|Alexandra|Александра|Alexandra|Новая Зеландия|New Zealand|NZ|-45.211667|169.373333|229
ALS|KALS||Municipal|Аламоса|Alamosa|США|United States|US|37.434917|-105.866556|2298
ALT|||Alenquer||Alenquer|Бразилия|Brazil|BR|-1.917499|-54.721111|52
ALU|HCMA|Алула|Alula|Алула|Alula|Сомали|Somalia|SO|11.950|50.733|2
ALV|||Andorra La Vella H/P|Андорра-ла-Велла|Andorra La Vella|Андорра|Andorra|AD|42.506|1.522|
ALW|KALW||Walla Walla||Walla Walla|США|United States|US|46.094778|-118.289000|364
ALX|KALX||Thomas C Russell Fld||Alexander City|США|United States|US|32.914744|-85.962956|209
ALY|HEAX||El Nohza|Александрия|Alexandria|Египет|Egypt|EG|31.183903|29.948889|
ALZ|KALZ||Alitak SPB||Alitak|США|United States|US|56.899487|-154.247847|0
AMA|KAMA||Rick Husband Amarillo International||Amarillo, TX|США|United States|US|35.219361|-101.705917|1099
AMB|FMNE|Амбилобе|Ambilobe|Амбилобе|Ambilobe|Мадагаскар|Madagascar|MG|-13.188431|48.987978|22
AMC|FTTN||Am Timan||Am Timan|Чад|Chad|TD|11.034|20.274|433
AMD|VAAH|Ахмедабад|Ahmedabad|Ахмедабад|Ahmedabad|Индия|India|IN|23.077242|72.634650|58
AME||Альто-Молокуэ|Alto Molocue|Альто-Молокуэ|Alto Molocue|Мозамбик|Mozambique|MZ|-15.633|37.700|563
AMF||Ама|Ama|Ама|Ama|Папуа - Новая Гвинея|Papua New Guinea|PG|-4.100|141.667|30
AMG|||Amboin||Amboin|Папуа - Новая Гвинея|Papua New Guinea|PG|-4.600|143.500|
AMH|HAAM|Арба-Минч|Arba Mintch|Арба-Минч|Arba Mintch|Эфиопия|Ethiopia|ET|6.039389|37.590453|1187
AMI|WADA||Selaparang||Mataram|Индонезия|Indonesia|ID|-8.560708|116.094656|16
AMJ|SNAR|Альменара|Almenara||Almenara|Бразилия|Brazil|BR|-16.165963|-40.684436|195
AMK|||Animas Airpark|Дуранго|Durango|США|United States|US|37.203178|-107.869195|2037
AML|||Puerto Armuellas||Puerto Armuellas|Панама|Panama|PA|8.268056|-82.864944|13
AMM|OJAI||Queen Alia Intl|Амман|Amman|Иордания|Jordan|JO|31.722556|35.993214|730
AMN|KAMN||Gratiot Community||Alma|США|United States|US|43.322139|-84.687944|230
AMO|FTTU|Мао|Mao|Мао|Mao|Чад|Chad|TD|14.145556|15.314444|327
AMP|FMSY|Ампанихи|Ampanihy|Ампанихи|Ampanihy|Мадагаскар|Madagascar|MG|-24.699722|44.734167|235
AMQ|WAPP||Pattimura|Амбон|Ambon|Индонезия|Indonesia|ID|-3.710264|128.089136|10
AMR||Арно|Arno|Арно|Arno|Маршалловы острова|Marshall Islands|MH|7.083|171.683|
AMS|EHAM||Amsterdam-Schiphol|Амстердам|Amsterdam|Нидерланды|Netherlands|NL|52.308613|4.763889|-3
AMT|YAMT|Амата|Amata||Amata|Австралия|Australia|AU|-26.102778|131.206667|695
AMU||Аманаб|Amanab|Аманаб|Amanab|Папуа - Новая Гвинея|Papua New Guinea|PG|-3.583|141.200|411
AMV|ULDD|Амдерма|Amderma|Амдерма|Amderma|Россия|Russian Federation|RU|69.763333|61.556389|4
AMW|KAMW|Амес|Ames||Ames|США|United States|US|41.992056|-93.621833|291
AMX|YAMM||Ammaroo||Ammaroo|Австралия|Australia|AU|-21.739167|135.243056|39
AMY||Амбатомаинти|Ambatomainty|Амбатомаинти|Ambatomainty|Мадагаскар|Madagascar|MG|-17.683|45.617|320
AMZ|NZAR|Ардмор|Ardmore|Ардмор|Ardmore|Новая Зеландия|New Zealand|NZ|-37.029722|174.973333|34
ANA|KANA||Orange County Steel Salvage Heliport|Анахайм|Anaheim|США|United States|US|33.812500|-117.918889|
ANB|KANB||Anniston Metropolitan||Anniston|США|United States|US|33.588167|-85.858111|187
ANC|PANC||Ted Stevens Anchorage International Airport|Анкораж|Anchorage|США|United States|US|61.174361|-149.996361|46
AND|KAND|Андерсон|Anderson||Anderson|США|United States|US|34.494583|-82.709389|238
ANE|LFJR||Marce|Анжер|Angers|Франция|France|FR|47.560211|-0.312128|59
ANF|SCFA||Cerro Moreno|Антофагаста|Antofagasta|Чили|Chile|CL|-23.444478|-70.445100|139
ANG|LFBU||Brie-Champniers|Ангулем|Angouleme|Франция|France|FR|45.729475|0.219153|133
ANH|||Anuha Island Resort||Anuha Island Resort|Соломоновы острова|Solomon Islands|SB|-8.983|160.500|
ANI|PANI||Aniak||Aniak|США|United States|US|61.581597|-159.543043|27
ANJ|FCBZ|Занага|Zanaga|Занага|Zanaga|Конго|Congo|CG|-2.850|13.817|570
ANK|LTAD||Etimesgut|Анкара|Ankara|Турция|Turkey|TR|39.949831|32.688622|809
ANL|FNAL|Андуло|Andulo|Андуло|Andulo|Ангола|Angola|AO|-11.471389|16.710833|1652
ANM|FMNH|Антсирабато|Antsirabato|Анталаха|Antalaha|Мадагаскар|Madagascar|MG|-14.999411|50.320233|6
ANN|PANT||Annette Island||Annette Island|США|United States|US|55.042437|-131.572232|36
ANO|FQAG||Angoche||Angoche|Мозамбик|Mozambique|MZ|-16.181944|39.944722|36
ANP|KANP|Ли|Lee|Аннаполис|Annapolis|США|United States|US|38.942878|-76.568399|10
ANQ|KANQ||Tri-State Steuben Cty|Ангола|Angola|США|United States|US|41.639698|-85.083493|303
ANR|EBAW||Deurne|Антверпен|Antwerp|Бельгия|Belgium|BE|51.189444|4.460278|12
ANS|SPHY|Андауайлас|Andahuaylas|Андауайлас|Andahuaylas|Перу|Peru|PE|-13.706408|-73.350378|3444
ANT|PHKO||St Anton||St Anton|Австрия|Austria|AT|0|0|
ANU|TAPA||V. C. Bird Intl||St. John&#039;s|Антигуа и Барбуда|Antigua And Barbuda|AG|17.136667|-61.792778|19
ANV|PANV||Anvik||Anvik|США|United States|US|62.647328|-160.190067|89
ANW|KANW||Ainsworth||Ainsworth|США|United States|US|42.579228|-99.992967|789
ANX|ENAN|Анденес|Andenes|Анденес|Andenes|Норвегия|Norway|NO|69.292500|16.144167|13
ANY|KANY||Anthony||Anthony|США|United States|US|37.158522|-98.079647|408
ANZ|||Angus Downs||Angus Downs|Австралия|Australia|AU|-25.034|132.276|517
AOA||Ароа|Aroa|Ароа|Aroa|Папуа - Новая Гвинея|Papua New Guinea|PG|-9.017|146.800|3
AOB||Аннаберг|Annanberg|Аннаберг|Annanberg|Папуа - Новая Гвинея|Papua New Guinea|PG|-4.917|144.650|30
AOC|EDAC||Altenburg Nobitz|Альтенбург|Altenburg|Германия|Germany|DE|50.981817|12.506361|195
AOD||Абу-Дейя|Abou Deia|Абу-Дейя|Abou Deia|Чад|Chad|TD|11.467|19.283|480
AOE|OPKC||Anadolu University|Эскишехир|Eskisehir|Турция|Turkey|TR|39.811666666667|30.528611111111|
AOG|ZYAS|Аншан|Anshan|Аньшань|Anshan|Китай|China|CN|41.105278|122.853889|
AOH|KAOH||Allen County|Лима|Lima|США|United States|US|40.707478|-84.027078|297
AOI|LIPY||Falconara|Анкона|Ancona|Италия|Italy|IT|43.616342|13.362319|15
AOJ|RJSA|Аомори|Aomori|Аомори|Aomori|Япония|Japan|JP|40.734722|140.690833|202
AOK|LGKP|Карпатос|Karpathos|Карпатос|Karpathos|Греция|Greece|GR|35.421408|27.146008|20
AOL|SARL||Paso De Los Libres||Paso De Los Libres|Аргентина|Argentina|AR|-29.689425|-57.152078|70
AON||Арона|Arona|Арона|Arona|Соломоновы острова|Solomon Islands|SB|-6.300|146.017|1280
AOO|KAOO|Мартинсбург|Martinsburg||Martinsburg|США|United States|US|40.296361|-78.320028|458
AOR|WMKA|Алор-Сетар|Alor Setar|Алор-Сетар|Alor Setar|Малайзия|Malaysia|MY|6.189667|100.398183|5
AOS|HTDA||Amook||Amook|США|United States|US|57.466666666667|-153.83333333333|
AOT|LIMW||Corrado Gex|Аоста|Aosta|Италия|Italy|IT|45.738456|7.368719|546
AOU|VLAP|Аттопью|Attopeu|Аттопью|Attopeu|Лаос|Laos|LA|14.800|106.833|105
APA|KAPA||Arapahoe Co|Денвер|Denver|США|United States|US|39.570111|-104.849306|1794
APB|SLAP|Аполо|Apolo|Аполо|Apolo|Боливия|Bolivia|BO|-14.733|-68.417|1414
APC|KAPC||Napa County|Напа|Napa|США|United States|US|38.213194|-122.280694|11
APE|SPAO|Сан-Хуан-Апосенто|San Juan Aposento|Сан-Хуан-Апосенто|San Juan Aposento|Перу|Peru|PE|-15.350|-75.167|
APF|KAPF|Неаполь|Naples|Неаполь|Naples|США|United States|US|26.152287|-81.775793|2
APG|KAPG||Phillips AAF||Aberdeen|США|United States|US|39.466219|-76.168808|17
APH|KAPH||Camp A P Hill||Bowling Green|США|United States|US|38.068833|-77.318333|67
API|SKAP|Апиай|Apiay|Апиай|Apiay|Колумбия|Colombia|CO|4.076069|-73.562731|374
APK|NTGD||Apataki||Apataki|Французская Полинезия|French Polynesia|PF|-15.573611|-146.415278|2
APL|FQNP|Нампула|Nampula|Нампула|Nampula|Мозамбик|Mozambique|MZ|-15.105611|39.281800|440
APN|KAPN||Alpena County Regional||Alpena|США|United States|US|45.078083|-83.560306|210
APO|SKLC|Апартадо|Apartado|Апартадо|Apartado|Колумбия|Colombia|CO|7.811817|-76.716325|14
APP||Асапа|Asapa|Асапа|Asapa|Папуа - Новая Гвинея|Papua New Guinea|PG|-8.967|148.100|579
APQ|SNAL||Arapiraca||Arapiraca|Бразилия|Brazil|BR|-9.775358|-36.629200|270
APR||Эйприл-Ривер|April River|Эйприл-Ривер|April River|Папуа - Новая Гвинея|Papua New Guinea|PG|-4.700|142.533|91
APS|SWNS|Анаполис|Anapolis||Anapolis|Бразилия|Brazil|BR|-16.362336|-48.927053|1110
APT|KAPT||Marion County|Джаспер|Jasper|США|United States|US|35.060678|-85.585317|195
APU|SSAP||Apucarana||Apucarana|Бразилия|Brazil|BR|-23.609511|-51.384486|805
APV|KAPV|Эппл Вэлли|Apple Valley|Эппл Вэлли|Apple Valley|США|United States|US|34.575333|-117.186194|933
APW|NSFA||Faleolo||Apia|Самоа|Samoa|WS|-13.829667|-171.997167|18
APX|SSOG||Arapongas||Arapongas|Бразилия|Brazil|BR|-23.352856|-51.491656|792
APY|SNAI||Alto Parnaiba||Alto Parnaiba|Бразилия|Brazil|BR|-9.083605|-45.950554|295
APZ|SAHZ|Запала|Zapala|Запала|Zapala|Аргентина|Argentina|AR|-38.975500|-70.113581|1015
AQA|SBAQ||Araraquara||Araraquara|Бразилия|Brazil|BR|-21.812000|-48.133028|711
AQB|MGQC||Quiche Airport||Quiche|Гватемала|Guatemala|GT|15.012222|-91.150556|2021
AQG|ZSAQ|Аньцин|Anqing|Аньцин|Anqing|Китай|China|CN|30.582222|117.050278|
AQI|OEPA|Кайсумах|Qaisumah|Кайсумах|Qaisumah|Саудовская Аравия|Saudi Arabia|SA|28.335192|46.125069|358
AQJ|OJAQ||King Hussein Intl|Акаба|Aqaba|Иордания|Jordan|JO|29.611619|35.018067|53
AQM|SWNI||Ariquemes||Ariquemes|Бразилия|Brazil|BR|-10.177778|-62.826111|90
AQP|SPQU||Rodriguez Ballon|Арекуипа|Arequipa|Перу|Peru|PE|-16.341072|-71.583083|2562
AQS||Сакани|Saqani|Сакани|Saqani|Фиджи|Fiji|FJ|-16.450|179.733|2
AQY|KAQY||Alyeska||Alyeska|США|United States|US|60.966096|-149.125789|46
ARA|KARA||Acadiana Regional||New Iberia|США|United States|US|30.037758|-91.883896|7
ARB|KARB||Municipal||Ann Arbor, MI|США|United States|US|42.222984|-83.745607|256
ARC|PARC||Arctic Village||Arctic Village|США|United States|US|68.114669|-145.579415|638
ARD|WATM|Алор-Айленд|Alor Island|Алор-Айленд|Alor Island|Индонезия|Indonesia|ID|-8.132336|124.597014|3
ARE|TJAB||Arecibo||Arecibo|Пуэрто Рико|Puerto Rico|PR|18.451111|-66.675556|7
ARF|||Acaricuara||Acaricuara|Колумбия|Colombia|CO|0.567|-72.400|380
ARG|KARG||Walnut Ridge||Walnut Ridge|США|United States|US|36.124667|-90.925111|85
ARH|ULAA|Талаги|Talagi|Архангельск|Arkhangelsk|Россия|Russian Federation|RU|64.600280|40.716667|19
ARI|SCAR||Chacalluta|Арика|Arica|Чили|Chile|CL|-18.348531|-70.338742|51
ARJ|WAJA|Арсо|Arso|Арсо|Arso|Индонезия|Indonesia|ID|-2.917|140.783|46
ARK|HTAR|Аруша|Arusha|Аруша|Arusha|Танзания|Tanzania|TZ|-3.367794|36.633333|1387
ARL|DFER|Арли|Arly|Арли|Arly|Буркина-Фасо|Burkina Faso|BF|11.597|1.483|232
ARM|YARM|Армидаль|Armidale|Армидаль|Armidale|Австралия|Australia|AU|-30.528056|151.617222|1084
ARN|ESSA||Arlanda|Стокгольм|Stockholm|Швеция|Sweden|SE|59.651944|17.918611|42
ARO||Арболетас|Arboletas|Арболетас|Arboletas|Колумбия|Colombia|CO|8.833|-76.433|4
ARP||Араджип|Aragip|Араджип|Aragip|Папуа - Новая Гвинея|Papua New Guinea|PG|-9.867|149.483|518
ARQ||Араукита|Arauquita|Араукита|Arauquita|Колумбия|Colombia|CO|7.021058|-71.388864|156
ARR|SAVR|Альто-Рио-Сенгерр|Alto Rio Senguerr|Альто-Рио-Сенгерр|Alto Rio Senguerr|Аргентина|Argentina|AR|-45.017|-70.800|697
ARS|SWEC||Aragarcas||Aragarcas|Бразилия|Brazil|BR|-15.896733|-52.095564|310
ART|KART||Watertown||Watertown|США|United States|US|43.991917|-76.021750|99
ARU|SBAU||Aracatuba||Aracatuba|Бразилия|Brazil|BR|-21.141342|-50.424722|415
ARV|KARV||Noble F. Lee||Minocqua|США|United States|US|45.927917|-89.730944|497
ARW|LRAR|Арад|Arad|Арад|Arad|Румыния|Romania|RO|46.176550|21.262022|107
ARX|OIHR||Asbury Park||Neptune, NJ|США|United States|US|40.219444444444|-74.09|30
ARY|YARA||Ararat||Ararat|Австралия|Australia|AU|-37.309444|142.988611|307
ASA|HHSB||Assab International|Ассаб|Assab|Эритрея|Eritrea|ER|13.071783|42.645006|14
ASB|UTAA||Ashgabat|Ашхабад|Ashgabat|Туркменистан|Turkmenistan|TM|37.986814|58.360967|211
ASC|SLAS|Аскеншн|Ascension|Аскеншн|Ascension|Боливия|Bolivia|BO|-15.717|-63.100|246
ASD|MYAF||Andros Town||Andros Town|Багамские острова|Bahamas|BS|24.698283|-77.795611|2
ASE|KASE|Аспен|Aspen|Аспен|Aspen|США|United States|US|39.223167|-106.868861|2384
ASF|URWA|Астрахань|Astrakhan|Астрахань|Astrakhan|Россия|Russian Federation|RU|46.283333|48.006278|
ASG|NZAS|Ашбертон|Ashburton|Ашбертон|Ashburton|Новая Зеландия|New Zealand|NZ|-43.903333|171.796667|91
ASH|KASH||Boire Field||Nashua, NH|США|United States|US|42.781750|-71.514778|61
ASI|FHAW||Wideawake Field||Georgetown, Ascension Island|Остров святой Елены|St. Helena|SH|-7.969597|-14.393664|85
ASJ|RJKA|Амами-О-Сима|Amami O Shima|Амами-О-Сима|Amami O Shima|Япония|Japan|JP|28.430633|129.712542|8
ASK|DIYO||Yamoussoukro||Yamoussoukro|Кот д&#039;Ивуар|Cote D&#039;Ivoire|CI|6.903167|-5.365581|213
ASL|KASL||Harrison County|Маршалл|Marshall|США|United States|US|32.520500|-94.307778|109
ASM|HHAS||Yohannes IV||Asmara|Эритрея|Eritrea|ER|15.291853|38.910667|2335
ASN|KASN||Talladega|Талладега|Talladega|США|United States|US|33.569471|-86.051230|161
ASO|HASO|Асоса|Asosa|Асоса|Asosa|Эфиопия|Ethiopia|ET|10.018550|34.586253|1561
ASP|YBAS|Элис Спрингз|Alice Springs|Элис Спрингз|Alice Springs|Австралия|Australia|AU|-23.806667|133.902222|545
ASQ|KTMT|Остин|Austin|Остин|Austin|США|United States|US|39.467981|-117.195370|1747
ASR|LTAU||Erkilet International Airport|Кайсери|Kayseri|Турция|Turkey|TR|38.770386|35.495428|1056
AST|KAST||Astoria||Astoria|США|United States|US|46.157972|-123.878694|5
ASU|SGAS||Silvio Pettirossi|Асунсьон|Asuncion|Парагвай|Paraguay|PY|-25.239850|-57.519133|89
ASV|HKAM|Амбосели|Amboseli|Амбосели|Amboseli|Кения|Kenya|KE|-2.633|37.250|1145
ASW|HESN|Асуан|Aswan|Асуан|Aswan|Египет|Egypt|EG|23.964356|32.819975|202
ASX|KASX|Эшленд|Ashland|Эшленд|Ashland|США|United States|US|46.548528|-90.918972|252
ASY|KASY||Ashley||Ashley|США|United States|US|46.023863|-99.352614|619
ASZ||Асирим|Asirim|Асирим|Asirim|Папуа - Новая Гвинея|Papua New Guinea|PG|-5.867|150.367|
ATA|SPHZ|Анта|Anta|Анта|Anta|Перу|Peru|PE|-9.347444|-77.598392|2773
ATB|HSAT|Атбара|Atbara|Атбара|Atbara|Судан|Sudan|SD|17.709722|34.056944|360
ATD|AGAT|Атоифи|Atoifi|Атоифи|Atoifi|Соломоновы острова|Solomon Islands|SB|-8.873333|161.011389|
ATE|KATE||Antlers||Antlers|США|United States|US|34.192601|-95.649859|175
ATF|SEAM||Chachoan|Амбато|Ambato|Эквадор|Ecuador|EC|-1.212067|-78.574636|2591
ATG|SPAY||Attock||Attock|Пакистан|Pakistan|PK|33.900|72.250|
ATH|LGAV||Eleftherios Venizelos|Афины|Athens|Греция|Greece|GR|37.936358|23.944467|94
ATI|SUAG|Артигас|Artigas|Артигас|Artigas|Уругвай|Uruguay|UY|-30.400706|-56.507869|125
ATJ|FMME|Анцирабе|Antsirabe|Анцирабе|Antsirabe|Мадагаскар|Madagascar|MG|-19.836944|47.065278|1523
ATK|PATQ||Atqasuk||Atqasuk|США|United States|US|70.467276|-157.435736|29
ATL|KATL||Hartsfield-jackson Atlanta International||Atlanta, GA|США|United States|US|33.636720|-84.428066|313
ATM|SBHT|Альтамира|Altamira||Altamira|Бразилия|Brazil|BR|-3.253906|-52.253978|112
ATN||Наматанай|Namatanai|Наматанай|Namatanai|Папуа - Новая Гвинея|Papua New Guinea|PG|-3.667|152.433|42
ATO|KUNI||Ohio University|Афины|Athens|Греция|Greece|GR|39.211893|-82.229255|233
ATP|||Airstrip|Айтейп|Aitape|Папуа - Новая Гвинея|Papua New Guinea|PG|-3.133|142.333|3
ATQ|VIAR||Raja Sansi|Амритсар|Amritsar|Индия|India|IN|31.709594|74.797264|230
ATR|GQPA||Mouakchott|Атар|Atar|Мавритания|Mauritania|MR|20.506828|-13.043194|231
ATS|KATS||Artesia||Artesia|США|United States|US|32.852528|-104.467686|1079
ATT|||Atmautluak||Atmautluak|США|United States|US|60.866746|-162.273139|5
ATU|PAAT||Casco Cove||Attu Island|США|United States|US|52.832542|173.175554|27
ATV|FTTI|Ати|Ati|Ати|Ati|Чад|Chad|TD|13.238889|18.313333|332
ATW|KATW||Outagamie County|Эпплтон|Appleton|США|United States|US|44.258083|-88.519083|280
ATX||Атбасар|Atbasar|Атбасар|Atbasar|Казахстан|Kazakhstan|KZ|51.851667|68.363333|308
ATY|KATY||Watertown||Watertown|США|United States|US|44.913972|-97.154722|533
ATZ|HEAT|Асьют|Assiut|Асьют|Assiut|Египет|Egypt|EG|27.046508|31.011983|235
AUA|TNCA||Reina Beatrix||Aruba|Аруба|Aruba|AW|12.501389|-70.015221|18
AUB|EDXY||Itauba||Itauba|Бразилия|Brazil|BR|-7.1|-41.983333333333|
AUC|SKUC|Араука|Arauca|Араука|Arauca|Колумбия|Colombia|CO|7.068889|-70.736944|128
AUD|YAGD||Augustus Downs||Augustus Downs|Австралия|Australia|AU|-18.507500|139.883611|46
AUE|||Abu Rudeis||Abu Rudeis|Египет|Egypt|EG|28.899017|33.202461|12
AUF|LFLA||Auxerre Branches||Auxerre|Франция|France|FR|47.846328|3.496578|159
AUG|KAUG||Augusta||Augusta|США|United States|US|44.320650|-69.797318|107
AUH|OMAA|Абу-Даби|Abu Dhabi International|Абу-Даби|Abu Dhabi|ОАЭ|United Arab Emirates|AE|24.432972|54.651138|27
AUI|||Aua Island||Aua Island|Папуа - Новая Гвинея|Papua New Guinea|PG|-1.450|143.067|1
AUJ||Амбунти|Ambunti|Амбунти|Ambunti|Папуа - Новая Гвинея|Papua New Guinea|PG|-4.217|142.817|49
AUK|PAUK||Alakanuk||Alakanuk|США|United States|US|62.680044|-164.659925|3
AUL|||Aur Island||Aur Island|Маршалловы острова|Marshall Islands|MH|8.145277|171.173056|
AUM|KAUM|Остин|Austin|Остин|Austin|США|United States|US|43.662639|-92.932917|376
AUN|KAUN|Обурн|Auburn|Обурн|Auburn|США|United States|US|38.954806|-121.081722|469
AUO|KAUO||Auburn-Opelika|Обурн|Auburn|США|United States|US|32.615111|-85.434000|237
AUP||Агаун|Agaun|Агаун|Agaun|Папуа - Новая Гвинея|Papua New Guinea|PG|-9.917|149.383|960
AUQ|NTMN||Atuona||Atuona|Французская Полинезия|French Polynesia|PF|-9.768794|-139.011256|451
AUR|LFLW|Орийак|Aurillac|Орийак|Aurillac|Франция|France|FR|44.897583|2.416719|639
AUT|WPAT|Атауро|Atauro|Атауро|Atauro|Индонезия|Indonesia|ID|-8.267|125.602|
AUU|YAUR||Aurukun Mission||Aurukun Mission|Австралия|Australia|AU|-13.353889|141.720833|9
AUV|EDXY||Aumo||Aumo|Папуа - Новая Гвинея|Papua New Guinea|PG|-5.7333333333333|148.5|
AUW|KAUW||Municipal||Wausau|США|United States|US|44.926285|-89.627002|366
AUX|SWGN||Araguaina||Araguaina|Бразилия|Brazil|BR|-7.227867|-48.240467|235
AUY|NVVA|Анейтьюм|Aneityum|Анейтьюм|Aneityum|Вануату|Vanuatu|VU|-20.249167|169.771389|2
AUZ|KARR||Municipal Airport||Aurora|США|United States|US|41.771917|-88.475667|217
AVA|||An Shun/Huang Guo Shu||An Shun|Китай|China|CN|26.260556|105.873056|
AVB|LIPA|Авиано|Aviano||Aviano|Италия|Italy|IT|46.031889|12.596472|125
AVF||Авориаз|Avoriaz|Аворьяз|Avoriaz|Франция|France|FR|46.2|6.7666666666667|
AVG|YAUV|Овернь|Auvergne|Овернь|Auvergne|Австралия|Australia|AU|-15.690278|130.008611|37
AVI|MUCA||Maximo Gomez||Ciego De Avila|Куба|Cuba|CU|22.027053|-78.789617|102
AVK|ZMAH||Arvaikheer||Arvaikheer|Монголия|Mongolia|MN|46.250397|102.802078|1808
AVL|KAVL||Asheville Regional Airport||Fletcher|США|United States|US|35.436194|-82.541806|660
AVN|LFMV||Avignon-Caum|Авиньон|Avignon|Франция|France|FR|43.906581|4.902028|38
AVO|KAVO||Municipal||Avon Park|США|United States|US|27.591300|-81.528967|49
AVP|KAVP||Wilkes-Barre/Scranton International Airport||Wilkes-Barre/Scranton, PA|США|United States|US|41.338472|-75.723389|293
AVU|AGGJ|Аву-Аву|Avu Avu|Аву-Аву|Avu Avu|Соломоновы острова|Solomon Islands|SB|-9.867|160.400|2
AVV|YMAV|Мельбурн-аэропорт Авалон|Avalon|Гелонг|Geelong|Австралия|Australia|AU|-38.039444|144.469444|11
AVW|KAVQ||Avra Valley|Туксон|Tucson|США|United States|US|32.409556|-111.218389|619
AVX|KAVX||Avalon Bay||Catalina Island|США|United States|US|33.404997|-118.415769|488
AWA|HALA|Авасса|Awassa|Авасса|Awassa|Эфиопия|Ethiopia|ET|7.067222|38.490278|1708
AWB||Аваба|Awaba|Аваба|Awaba|Папуа - Новая Гвинея|Papua New Guinea|PG|-8.000|142.750|
AWD|NVVB|Анива|Aniwa|Анива|Aniwa|Вануату|Vanuatu|VU|-19.240000|169.605000|21
AWE||Алове|Alowe|Алове|Alowe|Габон|Gabon|GA|-0.750|9.450|100
AWH|HAAW|Аварех|Awareh|Аварех|Awareh|Эфиопия|Ethiopia|ET|8.267|44.183|
AWK|PWAK||Wake Island||Wake Island|Внешние малые острова США|US Minor Outlying Islands|UM|19.282490|166.636661|7
AWM|KAWM||Municipal||West Memphis|США|United States|US|35.135059|-90.234446|65
AWN|YADS||Alton Downs||Alton Downs|Австралия|Australia|AU|-26.533|139.267|38
AWP|YAUS||Austral Downs||Austral Downs|Австралия|Australia|AU|-20.492778|137.766111|200
AWR||Авар|Awar|Авар|Awar|Папуа - Новая Гвинея|Papua New Guinea|PG|-4.117|144.850|9
AWZ|OIAW|Ахваз|Ahwaz|Ахваз|Ahwaz|Иран|Iran|IR|31.337431|48.761950|20
AXA|TQPF||Wallblake||Anguilla|Ангилья|Anguilla|AI|18.204722|-63.053889|39
AXB|KAXB|Александрия Бэй|Alexandria Bay||Alexandria Bay|США|United States|US|44.316717|-75.899673|104
AXC|YAMC||Aramac||Aramac|Австралия|Australia|AU|-22.967|145.233|238
AXD|LGAL|Димокритос|Dimokritos|Александрополи|Alexandroupolis|Греция|Greece|GR|40.855869|25.956264|7
AXE|KBAX||Xanxere||Xanxere|Бразилия|Brazil|BR|-26.883333333333|-52.383333333333|
AXG|KAXA|Алгона|Algona||Algona|США|United States|US|43.077911|-94.271993|372
AXK|OYAT|Атак|Ataq|Атак|Ataq|Йемен|Yemen|YE|14.551322|46.826183|1138
AXL|YALX|Александрия|Alexandria|Александрия|Alexandria|Австралия|Australia|AU|-19.061667|136.713333|210
AXM|SKAR||El Eden|Армения|Armenia|Колумбия|Colombia|CO|4.453333|-75.765833|1216
AXN|KAXN|Александрия|Alexandria|Александрия|Alexandria|США|United States|US|45.866306|-95.394667|434
AXP|MYAP||Springpoint Arpt||Spring Point|Теркс и Кайкос|Turks and Caicos Islands|TC|22.441828|-73.970858|3
AXR|NTGU||Arutua||Arutua|Французская Полинезия|French Polynesia|PF|-15.246389|-146.620278|3
AXS|KAXS||Municipal||Altus|США|United States|US|34.698806|-99.338472|437
AXT|RJSK|Акита|Akita|Акита|Akita|Япония|Japan|JP|39.615556|140.218611|95
AXU|HAAX|Аксум|Axum|Аксум|Axum|Эфиопия|Ethiopia|ET|14.146750|38.772833|2108
AXV|KAXV||Neil Armstrong||Wapakoneta|США|United States|US|40.493556|-84.298083|278
AXX|KAXX||Angel Fire||Angel Fire|США|United States|US|36.422000|-105.289905|2554
AYA||Айапел|Ayapel|Айапел|Ayapel|Колумбия|Colombia|CO|8.283|-75.133|37
AYC||Айакучо|Ayacucho|Аякучо|Ayacucho|Перу|Peru|PE|8.600|-73.600|126
AYD|||Alroy Downs||Alroy Downs|Австралия|Australia|AU|-19.290833|136.079444|219
AYE|MTPP||AAF Heliport||Fort Devens|Гаити|Haiti|HT|19.833333333333|-72.5|
AYG|SKYA|Ягуара|Yaguara|Ягуара|Yaguara|Колумбия|Colombia|CO|1.544167|-73.933333|256
AYH|||RAF Station||Alconbury|Великобритания|United Kingdom|GB|52.366666666667|-0.26666666666667|
AYI||Яри|Yari|Яри|Yari|Колумбия|Colombia|CO|-0.383|-72.267|
AYK|UAUR|Аркалык|Arkalyk|Аркалык|Arkalyk|Казахстан|Kazakhstan|KZ|50.318611|66.952777|
AYL|YANL||Anthony Lagoon||Anthony Lagoon|Австралия|Australia|AU|-18.020556|135.540278|228
AYN|ZHAY|Аньян|Anyang|Аньян|Anyang|Китай|China|CN|36.133889|114.343889|
AYO|MTPP||Ayolas||Ayolas|Уганда|Uganda|UG|2.05|33.75|
AYP|SPHO||Yanamilla|Аякучо|Ayacucho|Перу|Peru|PE|-13.154819|-74.204417|2718
AYQ|YAYE||Connellan|Айерс Рок|Ayers Rock|Австралия|Australia|AU|-25.186111|130.975556|496
AYR|YAYR|Эйр|Ayr|Эйр|Ayr|Австралия|Australia|AU|-19.584444|147.329167|12
AYS|KAYS||Ware County||Waycross|США|United States|US|31.248397|-82.395395|43
AYT|LTAI|Анталия|Antalya|Анталия|Antalya|Турция|Turkey|TR|36.898731|30.800461|54
AYU||Айюра|Aiyura|Айюра|Aiyura|Папуа - Новая Гвинея|Papua New Guinea|PG|-6.333|145.900|1554
AYW|WRTA|Аяваси|Ayawasi|Аяваси|Ayawasi|Индонезия|Indonesia|ID|-1.133|132.467|549
AYZ|WRTA||Zahns||Amityville|США|United States|US|40.666666666667|-73.416666666667|
AZB||Амазон-Бей|Amazon Bay|Амазон-Бей|Amazon Bay|Папуа - Новая Гвинея|Papua New Guinea|PG|-10.300|149.333|3
AZD|OIYY|Язд|Yazd|Язд|Yazd|Иран|Iran|IR|31.904908|54.276503|1236
AZG|MMAG|Апацинган|Apatzingan|Апацинган|Apatzingan|Мексика|Mexico|MX|19.093425|-102.393608|315
AZI|OMAD|Батин|Bateen|Абу-Даби|Abu Dhabi|ОАЭ|United Arab Emirates|AE|24.428333|54.458084|5
AZN|UTKA|Андижан|Andizhan|Андижан|Andizhan|Узбекистан|Uzbekistan|UZ|40.727739|72.294019|462
AZO|KAZO||Kalamazoo/Battle Creek Intl|Каламазу|Kalamazoo|США|United States|US|42.234389|-85.551556|266
AZP|HHSB||Atizapan|Мексико Сити|Mexico City|Мексика|Mexico|MX|19.35|-99.116666666667|
AZR|DAUA|Адрар|Adrar||Adrar|Алжир|Algeria|DZ|27.839167|-0.185278|280
AZT||Запатока|Zapatoca|Запатока|Zapatoca|Колумбия|Colombia|CO|6.767|-73.267|1639
AZZ|FNAM||Ambriz||Ambriz|Ангола|Angola|AO|-7.862222|13.116111|44
BAA||Биалла|Bialla|Биалла|Bialla|Папуа - Новая Гвинея|Papua New Guinea|PG|-5.330556|151.007778|9
BAB|KBAB||Beale AFB||Marysville|США|United States|US|39.136089|-121.436567|34
BAC|||Barranca De Upia||Barranca De Upia|Колумбия|Colombia|CO|4.567|-72.950|204
BAD|KBAD||Barksdale AFB|Шревспорт|Shreveport|США|United States|US|32.501931|-93.662628|51
BAE|LFMR|Барселонетта|Barcelonnette|Барселонетта|Barcelonnette|Франция|France|FR|44.388333|6.610278|1132
BAF|KBAF||Barnes||Westfield|США|United States|US|42.157947|-72.715875|82
BAG|RPUB||Loakan|Багуйо|Baguio|Филиппины|Philippines|PH|16.375103|120.619636|1296
BAH|OBBI||Bahrain International||Manama|Бахрейн|Bahrain|BH|26.270834|50.633610|2
BAI|MRBA|Буэнос-Айрес|Buenos Aires|Буэнос-Айрес|Buenos Aires|Коста-Рика|Costa Rica|CR|9.163606|-83.329872|370
BAJ||о.Бали|Bali|Бали|Bali|Папуа - Новая Гвинея|Papua New Guinea|PG|-4.883|149.133|37
BAL|LTCJ||Batman||Batman|Турция|Turkey|TR|37.928969|41.116583|555
BAM|KBAM||Lander County||Battle Mountain|США|United States|US|40.599046|-116.874336|1381
BAN|FZVR|Базонго|Basongo|Базонго|Basongo|Демократическая республика Конго|Democratic Republic Of Congo|CD|-4.317|20.433|500
BAO|VTED||Udorn||Ban Mak Khaen|Таиланд|Thailand|TH|17.383|102.800|
BAP||Байбара|Baibara|Байбара|Baibara|Папуа - Новая Гвинея|Papua New Guinea|PG|-10.333|149.633|5
BAQ|SKBQ||E Cortissoz|Барранкуилла|Barranquilla|Колумбия|Colombia|CO|10.889461|-74.780678|30
BAR|||Baker Aaf|Бейкер-Айленд, шт. Аляска|Baker Island|США|United States|US|0.21666666666667|-176.51666666667|
BAS|AGGE|Балале|Balalae|Балале|Balalae|Соломоновы острова|Solomon Islands|SB|-6.990556|155.885833|2
BAT|SBBT||Airport Chafei Amsei||Barretos|Бразилия|Brazil|BR|-20.584547|-48.594086|579
BAU|SBBU||Bauru||Bauru|Бразилия|Brazil|BR|-22.345042|-49.053800|617
BAV|ZBOW|Баотоу|Baotou|Баотоу|Baotou|Китай|China|CN|40.559999|109.996944|
BAW||Биавонке|Biawonque|Биавонке|Biawonque|Габон|Gabon|GA|-0.867|9.283|35
BAX|UNBB|Барнаул|Barnaul|Барнаул|Barnaul|Россия|Russian Federation|RU|53.363775|83.538533|255
BAY|LRBM|Байя Маре|Baia Mare|Байя Маре|Baia Mare|Румыния|Romania|RO|47.658389|23.470022|184
BAZ|SWBC||Barbelos||Barbelos|Бразилия|Brazil|BR|-0.981292|-62.919644|34
BBA|SCBA||Teniente Vidal|Балмаседа|Balmaceda|Чили|Chile|CL|-45.916058|-71.689475|525
BBB|KBBB||Municipal||Benson|США|United States|US|45.331917|-95.650583|317
BBC|KBYY|Бэй Сити|Bay City|Бэй Сити|Bay City|США|United States|US|28.973250|-95.863444|14
BBD|KBBD||Curtis Field||Brady|США|United States|US|31.179278|-99.323917|557
BBE|||Big Bell||Big Bell|Австралия|Australia|AU|-27.416666666667|117.66666666667|429
BBF|KHBG||Burlington||Burlington|США|United States|US|42.5|-71.183333333333|
BBG|NGTU|Бутаритари|Butaritari|Бутаритари|Butaritari|Кирибати|Kiribati|KI|3.085833|172.811111|2
BBH|EDBH|Барт|Barth|Барт|Barth|Германия|Germany|DE|54.337540|12.699705|7
BBI|VEBS|Бхубанесвар|Bhubaneswar|Бхубанесвар|Bhubaneswar|Индия|India|IN|20.244364|85.817781|42
BBJ|EDRB||Bitburg Air Base|Битбург|Bitburg|Германия|Germany|DE|49.945333|6.565000|373
BBK|FBKE|Касане|Kasane|Касане|Kasane|Ботсвана|Botswana|BW|-17.832875|25.162400|1002
BBL|OINB|Баболсар|Babolsar|Баболсар|Babolsar|Иран|Iran|IR|36.650|52.667|-12
BBM|VDBG|Баттамбанг|Battambang|Баттамбанг|Battambang|Камбоджа|Cambodia|KH|13.095564|103.224408|18
BBN|WBGZ||Bario||Bario|Малайзия|Malaysia|MY|3.736944|115.469444|1052
BBO|HCMI|Бербера|Berbera|Бербера|Berbera|Эфиопия|Ethiopia|ET|10.389167|44.941106|9
BBP|EGHJ||Bembridge||Bembridge|Великобритания|United Kingdom|GB|50.677778|-1.109444|17
BBQ|TAPH||Barbuda||Barbuda|Антигуа и Барбуда|Antigua And Barbuda|AG|17.635833|-61.826944|5
BBR|TFFB||Baillif||Basse Terre|Гваделупа|Guadeloupe|GP|16.013333|-61.742222|18
BBS|EGLK||Blackbushe||Yateley|Великобритания|United Kingdom|GB|51.323889|-0.847500|99
BBT|FEFT|Берберати|Berberati|Берберати|Berberati|Центральноафриканская Республика|Central African Republic|CF|4.221583|15.786369|588
BBU|LRBS||Baneasa|Бухарест|Bucharest|Румыния|Romania|RO|44.503194|26.102111|91
BBV|DIGN||Hkg||Bereby|Кот д&#039;Ивуар|Cote D&#039;Ivoire|CI|4.633|-6.917|6
BBW|KBBW||Broken Bow||Broken Bow|США|United States|US|41.436451|-99.642169|776
BBX|KLOM||Wings Field||Blue Bell|США|United States|US|40.137556|-75.265139|92
BBY|FEFM|Бамбари|Bambari|Бамбари|Bambari|Центральноафриканская Республика|Central African Republic|CF|5.846944|20.647500|472
BBZ|FLZB|Замбези|Zambezi|Замбези|Zambezi|Замбия|Zambia|ZM|-13.537222|23.108333|1078
BCA|MUBA|Баракоа|Baracoa|Баракоа|Baracoa|Куба|Cuba|CU|20.365317|-74.506206|8
BCB|KBCB||Virginia Tech||Blacksburg|США|United States|US|37.207639|-80.407833|650
BCC|KBCC||Bear Creek||Bear Creek|США|United States|US|63.571609|-156.144051|226
BCD|RPVB|Баколод|Bacolod|Баколод|Bacolod|Филиппины|Philippines|PH|10.642511|122.929617|8
BCE|KBCE||Bryce||Bryce|США|United States|US|37.706444|-112.145806|2313
BCF|FEGU|Бука|Bouca|Бука|Bouca|Центральноафриканская Республика|Central African Republic|CF|6.517|18.267|467
BCG|SYBE|Бемичи|Bemichi|Бемичи|Bemichi|Гайана|Guyana|GY|7.700|-59.167|
BCH|WPEC||Cakung International|Баукау|Baucau|Восточный Тимор|East Timor-Indonesia|TP|-8.485472|126.399333|542
BCI|YBAR||Barcaldine||Barcaldine|Австралия|Australia|AU|-23.565278|145.306667|268
BCJ|SCIP||Baca Grande||Baca Grande|США|United States|US|37.966666666667|-105.76666666667|2323
BCK|YBWR||Bolwarra||Bolwarra|Австралия|Australia|AU|-17.387500|144.168889|305
BCL|MRBC|Барра-Колорадо|Barra Colorado|Барра-Колорадо|Barra Colorado|Коста-Рика|Costa Rica|CR|10.767|-83.583|1
BCM|LRBC|Бакау|Bacau|Бакэу|Bacau|Румыния|Romania|RO|46.521944|26.910278|185
BCN|LEBL||El Prat De Llobregat|Барселона|Barcelona|Испания|Spain|ES|41.297078|2.078463|4
BCO|HABC||Jinka||Jinka|Эфиопия|Ethiopia|ET|5.783|36.550|1311
BCP|||Bambu||Bambu|Эфиопия|Ethiopia|ET|-5.867|146.483|
BCQ|HLLQ|Вейл-Игл, шт. Колорадо|Brack|Вейл-Игл, шт. Колорадо|Brack|Намибия|Namibia|NA|27.653|14.272|322
BCR|SWNK||Boca Do Acre||Boca Do Acre|Бразилия|Brazil|BR|-8.834561|-67.312403|120
BCS|||Southern Seaplane||Belle Chasse|США|United States|US|29.866039|-90.022293|0
BCT|KBCT||Public|Бока Ратон|Boca Raton|США|United States|US|26.378500|-80.107694|4
BCU||Баучи|Bauchi|Баучи|Bauchi|Нигерия|Nigeria|NG|10.294444|9.816667|609
BCV|PABV||Belmopan||Belmopan|Белиз|Belize|BZ|61.416083|-149.508306|25
BCW|||Benguera Island||Benguera Island|Мозамбик|Mozambique|MZ|-21.853056|35.438333|
BCX|UWUB|Белорецк|Beloreck|Белорецк|Beloreck|Россия|Russian Federation|RU|53.938056|58.340000|557
BCY|HABU|Бульчи|Bulchi|Бульчи|Bulchi|Эфиопия|Ethiopia|ET|6.217|36.667|1372
BCZ|||Bickerton Island||Bickerton Island|Австралия|Australia|AU|-13.781944|136.201944|
BDA|TXKF||Kindley Field||Bermuda|Бермудские острова|Bermuda|BM|32.364041|-64.678703|5
BDB|YBUD|Бандаберг|Bundaberg|Бандаберг|Bundaberg|Австралия|Australia|AU|-24.903889|152.318611|33
BDC|SNBC||Barra Do Corda||Barra Do Corda|Бразилия|Brazil|BR|-5.500269|-45.242222|155
BDD|YBAU||Badu Island||Badu Island|Австралия|Australia|AU|-10.150000|142.174167|14
BDE|KBDE||Baudette||Baudette|США|United States|US|48.728444|-94.612222|331
BDF|KBDF||Rinkenberger||Bradford|США|United States|US|41.230871|-89.615652|246
BDG|KBDG||Blanding||Blanding|США|United States|US|37.583337|-109.483289|1789
BDH|OIBL|Бандар-Ленге|Bandar Lengeh|Бандар-Ленге|Bandar Lengeh|Иран|Iran|IR|26.532000|54.824847|20
BDI|FSSB|Берд-Айленд|Bird Island|Берд-Айленд|Bird Island|Сейшельские о-ва|Seychelles|SC|-3.724722|55.205278|2
BDJ|WAOO||Sjamsudin Noor|Банджармасин|Banjarmasin|Индонезия|Indonesia|ID|-3.442356|114.762553|20
BDK|DIBU||Bondoukou||Bondoukou|Кот д&#039;Ивуар|Cote D&#039;Ivoire|CI|8.017222|-2.761944|380
BDL|KBDL||Bradley International||Windsor Locks|США|United States|US|41.938889|-72.683222|53
BDM|LTBG|Бандирма|Bandirma|Бандирма|Bandirma|Турция|Turkey|TR|40.317972|27.977694|52
BDN|OPTH||Talhar|Бадин|Badin|Пакистан|Pakistan|PK|24.841519|68.838408|9
BDO|WICC||Husein Sastranegara|Бандунг|Bandung|Индонезия|Indonesia|ID|-6.900625|107.576294|742
BDP|VNCG|Бхадрапур|Bhadrapur|Бхадрапур|Bhadrapur|Непал|Nepal|NP|26.570278|88.075833|91
BDQ|VABO||Vadodara||Vadodara|Индия|India|IN|22.336164|73.226289|39
BDR|KBDR||Igor I. Sikorsky Mem.||Bridgeport|США|United States|US|41.163472|-73.126167|3
BDS|LIBR||Papola Casale|Бриндиси|Brindisi|Италия|Italy|IT|40.657633|17.947033|14
BDT|FZFD||Kisangani|Гбадолите|Gbadolite|Демократическая республика Конго|Democratic Republic Of Congo|CD|4.253206|20.975283|460
BDU|ENDU|Бордуфос|Bardufoss|Бордуфос|Bardufoss|Норвегия|Norway|NO|69.055758|18.540356|77
BDV|FZRB|Моба|Moba|Моба|Moba|Демократическая республика Конго|Democratic Republic Of Congo|CD|-7.083889|29.738333|900
BDW|YBDF||Bedford Downs||Bedford Downs|Австралия|Australia|AU|-17.287500|127.466944|36
BDX|KBDX||Broadus||Broadus|США|United States|US|45.433325|-105.417213|925
BDY|KBDY||State||Bandon|США|United States|US|43.086472|-124.407861|37
BDZ||Байндунг|Baindoung|Байндунг|Baindoung|Папуа - Новая Гвинея|Papua New Guinea|PG|-6.333|146.933|1280
BEA||Берейна|Bereina|Берейна|Bereina|Папуа - Новая Гвинея|Papua New Guinea|PG|-8.633|146.500|15
BEB|EGPL||Benbecula||Benbecula|Великобритания|United Kingdom|GB|57.481111|-7.362778|6
BEC|KBEC||Beech|Вичита|Wichita|США|United States|US|37.694475|-97.214989|429
BED|KBED||Hanscom Field||Bedford/Hanscom|США|United States|US|42.469953|-71.289030|41
BEE|YBGB||Beagle Bay||Beagle Bay|Австралия|Australia|AU|-17.016389|122.646111|15
BEF|MNBL|Блуфилдс|Bluefields|Блуфилдс|Bluefields|Никарагуа|Nicaragua|NI|11.990961|-83.774086|12
BEG|LYBE||Nikola Tesla|Белград|Belgrade|Сербия|Serbia|RS|44.818444|20.309139|102
BEH|KBEH||Ross Field|Бентон Харбор|Benton Harbor|США|United States|US|42.128583|-86.428500|196
BEI|HABE|Бейка|Beica|Бейка|Beica|Эфиопия|Ethiopia|ET|9.386389|34.521944|1649
BEJ|WALK||Kalimaru||Tanjung Redep|Индонезия|Indonesia|ID|2.155497|117.432256|18
BEK|VIRB||Bareli||Bareli|Индия|India|IN|26.217|81.233|
BEL|SBBE||Val De Cans|Белем|Belem|Бразилия|Brazil|BR|-1.379250|-48.476292|16
BEM|FEFL|Боссембеле|Bossembele|Боссембеле|Bossembele|Центральноафриканская Республика|Central African Republic|CF|5.267|17.633|680
BEN|HLLB||Benina Intl||Benghazi|Ливия|Libya|LY|32.096786|20.269472|132
BEO|YPEC||Belmont|Ньюкасл|Newcastle|Австралия|Australia|AU|-33.066111|151.646389|3
BEP|VOBI|Беллари|Bellary|Беллари|Bellary|Индия|India|IN|15.162783|76.882775|9
BEQ|EGXH||Honington||Bury St Edmunds|Великобритания|United Kingdom|GB|52.342611|0.772939|53
BER|||Berlin Metropolitan Area|Берлин|Berlin|Германия|Germany|DE|52.517|13.400|
BES|LFRB||Guipavas|Брест|Brest|Франция|France|FR|48.447222|-4.421667|99
BET|PABE||Bethel Airport||Bethel|США|United States|US|60.778557|-161.837177|38
BEU|YBIE||Bedourie||Bedourie|Австралия|Australia|AU|-24.346111|139.460278|91
BEV|LLBS||Beer Sheba||Beer Sheba|Израиль|Israel|IL|31.287003|34.722953|200
BEW|FQBR|Бейра|Beira|Бейра|Beira|Мозамбик|Mozambique|MZ|-19.796419|34.907556|10
BEX|EGUB||RAF Station||Benson|Великобритания|United Kingdom|GB|51.616389|-1.095833|69
BEY|OLBA||Rafic Hariri International Airport|Бейрут|Beirut|Ливан|Lebanon|LB|33.820931|35.488389|27
BEZ|NGBR|Беру|Beru|Беру|Beru|Кирибати|Kiribati|KI|-1.354722|176.006944|2
BFA|KBFA||Bahia Negra||Bahia Negra|Парагвай|Paraguay|PY|45.165842|-84.924114|219
BFB|KBUR||Blue Fox Bay||Blue Fox Bay|США|United States|US|58.183333333333|-152.13333333333|
BFC|YBMD||Bloomfield||Bloomfield|Австралия|Australia|AU|-15.873611|145.329722|37
BFD|KBFD||Bradford||Bradford|США|United States|US|41.803068|-78.640121|653
BFE|EDLI|Билифельд|Bielefeld|Билефельд|Bielefeld|Германия|Germany|DE|51.964833|8.544833|138
BFF|KBFF||Scotts Bluff County||Scottsbluff|США|United States|US|41.874028|-103.595639|1209
BFG|KBFG||Bullfrog Basin||Bullfrog Basin|США|United States|US|37.545824|-110.713199|1270
BFH|KBUR||Bacacheri|Куритиба|Curitiba|Бразилия|Brazil|BR|-25.405|-49.231944444444|932
BFI|KBFI||Boeing Field/King County International Airport|Сиэттл|Seattle|США|United States|US|47.530000|-122.301972|6
BFJ|NFFA|Ба|Ba|Ба|Ba|Фиджи|Fiji|FJ|-17.550|177.667|18
BFK|KBFK||Buffalo Municipal Airport||Buffalo|США|United States|US|36.863301|-99.618731|555
BFL|KBFL||Meadows Field|Бейкерсфилд|Bakersfield|США|United States|US|35.433861|-119.057667|155
BFM|KBFM||Mob Aerospace|Мобайл|Mobile|США|United States|US|30.626778|-88.068083|8
BFO|FVCZ||Buffalo Range||Buffalo Range|Зимбабве|Zimbabwe|ZW|-21.008083|31.578550|433
BFP|KBVI||Beaver Falls||Beaver Falls|США|United States|US|40.772472|-80.391444|382
BFQ|||Bahia Pinas||Bahia Pinas|Панама|Panama|PA|7.583|-78.200|
BFR|KBFR||Virgil I Grissom Muni||Bedford|США|United States|US|38.840028|-86.445361|222
BFS|EGAA||Aldergrove International Airport||Belfast|Великобритания|United Kingdom|GB|54.657500|-6.215833|82
BFT|KARW||County||Beaufort|США|United States|US|32.412166|-80.634354|3
BFU|ZSBB|Бенгбу|Bengbu|Бенгбу|Bengbu|Китай|China|CN|32.847500|117.320278|
BFV|VTUO||Buri Ram||Buri Ram|Таиланд|Thailand|TH|15.229539|103.253231|180
BFW|KBFW||Sidi Belabbes||Sidi Belabbes|Алжир|Algeria|DZ|47.249028|-91.415583|332
BFX|FKKU||Bafoussam||Bafoussam|Камерун|Cameroon|CM|5.536919|10.354583|1325
BGA|SKBG||Palo Negro||Bucaramanga|Колумбия|Colombia|CO|7.126944|-73.185000|1189
BGB|FOGB||Booue||Booue|Габон|Gabon|GA|-0.100|11.950|184
BGC|LPBG|Браганса|Braganca|Браганса|Braganca|Португалия|Portugal|PT|41.857800|-6.707125|683
BGD|KBGD||Borger||Borger|США|United States|US|35.700894|-101.393663|931
BGE|KBGE||Decatur County||Bainbridge|США|United States|US|30.971598|-84.636928|43
BGF|FEFF||Bangui||Bangui|Центральноафриканская Республика|Central African Republic|CF|4.398475|18.518786|368
BGG|||Bongouanou||Bongouanou|Кот д&#039;Ивуар|Cote D&#039;Ivoire|CI|6.650|-4.200|
BGH|GQNE||Abbaye|Боге|Boghe|Мавритания|Mauritania|MR|16.633|-14.183|20
BGI|TBPB||Grantley Adams International||Bridgetown|Барбадос|Barbados|BB|13.074603|-59.492456|52
BGJ|BIBF||Borgarfjordur Eystri||Borgarfjordur Eystri|Исландия|Iceland|IS|65.516389|-13.805000|24
BGK||Биг-Крик|Big Creek|Биг-Крик|Big Creek|Белиз|Belize|BZ|16.517|-88.400|5
BGL|VNBL|Баглунг|Baglung|Баглунг|Baglung|Непал|Nepal|NP|28.212816|83.666328|1012
BGM|KBGM||Greater Binghamton||Binghamton, NY|США|United States|US|42.208556|-75.979722|499
BGN|ETUR||R.A.F.||Brueggen|Германия|Germany|DE|51.200|6.133|73
BGO|ENBR||Bergen Airport, Flesland|Берген|Bergen|Норвегия|Norway|NO|60.293386|5.218142|52
BGP||Бонго|Bongo|Бонго|Bongo|Габон|Gabon|GA|-2.200|10.233|40
BGQ|PAGQ||Big Lake||Big Lake|США|United States|US|61.536122|-149.813897|48
BGR|KBGR||Bangor International Airport|Бангор|Bangor|США|United States|US|44.807444|-68.828139|59
BGS|KBGS||Webb AFB||Big Spring|США|United States|US|32.21444444|-101.52499999|
BGT|KBGT||Bagdad||Bagdad|США|United States|US|34.595853|-113.170195|1275
BGU|FEFG|Бангассу|Bangassou|Бангассу|Bangassou|Центральноафриканская Республика|Central African Republic|CF|4.785|22.781|520
BGV|||Bento Goncalves||Bento Goncalves|Бразилия|Brazil|BR|-29.167|-51.500|645
BGW|ORBI||Al Muthana|Багдад|Baghdad|Ирак|Iraq|IQ|33.262538|44.234577|35
BGX|SBBG||Airport Cmdt. Gustavo Kraemer||Bage|Бразилия|Brazil|BR|-31.390528|-54.112244|183
BGY|LIME||Orio al Serio|Бергамо|Bergamo|Италия|Italy|IT|45.673889|9.704166|238
BGZ|LPBR|Брага|Braga|Брага|Braga|Португалия|Portugal|PT|41.587058|-8.445139|75
BHA|SESV||Bahia De Caraquez||Bahia De Caraquez|Эквадор|Ecuador|EC|-0.608111|-80.402683|3
BHB|KBHB|Бар Харбор|Bar Harbor|Бар Харбор|Bar Harbor|США|United States|US|44.449769|-68.361565|25
BHC|KBHC||Bhurban Heliport||Bhurban|США|United States|US|31.713833|-82.393778|61
BHD|EGAC||George Best Belfast City||Belfast|Великобритания|United Kingdom|GB|54.618056|-5.872500|5
BHE|NZWB||Woodbourne Air Station|Бленхайм|Blenheim|Новая Зеландия|New Zealand|NZ|-41.518333|173.870278|33
BHF|SKCP|Бахья-Купика|Bahia Cupica|Бахья-Купика|Bahia Cupica|Колумбия|Colombia|CO|6.550|-77.333|
BHG|MHBL|Брюс-Лагуна|Brus Laguna|Брюс-Лагуна|Brus Laguna|Гондурас|Honduras|HN|15.735000|-84.542500|3
BHH|OEBH|Биша|Bisha|Биша|Bisha|Саудовская Аравия|Saudi Arabia|SA|19.984350|42.620881|1185
BHI|SAZB||Comandante||Bahia Blanca|Аргентина|Argentina|AR|-38.724967|-62.169317|75
BHJ|VABJ||Rudra Mata|Бхудж|Bhuj|Индия|India|IN|23.287828|69.670147|82
BHK|UTSB|Бухара|Bukhara|Бухара|Bukhara|Узбекистан|Uzbekistan|UZ|39.775000|64.483333|229
BHL||Бахиа-Ангелес|Bahia Angeles|Бахиа-Ангелес|Bahia Angeles|Мексика|Mexico|MX|28.978611|-113.560833|6
BHM|KBHM||Birmingham||Birmingham|Великобритания|United Kingdom|GB|33.563889|-86.752306|198
BHN|OYBN|Бейхан|Beihan|Бейхан|Beihan|Йемен|Yemen|YE|14.781972|45.720083|1158
BHO|VABP|Бхопал|Bhopal|Бхопал|Bhopal|Индия|India|IN|23.287467|77.337375|524
BHP|VNBJ|Бхойпур|Bhojpur|Бхойпур|Bhojpur|Непал|Nepal|NP|27.147430|87.050819|1219
BHQ|YBHI||Broken Hill||Broken Hill|Австралия|Australia|AU|-32.001389|141.471667|292
BHR|VNBP||Bharatpur Airport|Бхаратпур|Bharatpur|Непал|Nepal|NP|27.678056|84.429444|183
BHS|YBTH||Raglan|Батерст|Bathurst|Австралия|Australia|AU|-33.409444|149.651944|742
BHT|YBTD||Brighton Downs||Brighton Downs|Австралия|Australia|AU|-23.363333|141.562778|174
BHU|VABV|Бхавнагар|Bhavnagar|Бхавнагар|Bhavnagar|Индия|India|IN|21.752206|72.185181|13
BHV|OPBW|Бахавалпур|Bahawalpur|Бахавалпур|Bahawalpur|Пакистан|Pakistan|PK|29.348100|71.717981|119
BHW|CYYZ||Bhagatanwala Apt|Саргодха|Sargodha|Пакистан|Pakistan|PK|32.083611111111|72.671111111111|
BHX|EGBB||Birmingham International Airport||Birmingham|Великобритания|United Kingdom|GB|52.453856|-1.748028|100
BHY|ZGBH|Бэйхай|Beihai|Бейхай|Beihai|Китай|China|CN|21.539444|109.293889|
BIA|LFKB||Poretta|Бастия|Bastia|Франция|France|FR|42.550000|9.484722|8
BIB|HCMB|Байдоа|Baidoa|Байдоа|Baidoa|Сомали|Somalia|SO|3.101667|43.626944|463
BIC|CYLB|Биг-Крик|Big Creek|Биг-Крик|Big Creek|США|United States|US|57.666666666667|-157.58333333333|
BID|KBID||Block Island||Block Island|США|United States|US|41.168111|-71.577833|33
BIE|KBIE||Beatrice||Beatrice|США|United States|US|40.301278|-96.754111|404
BIF|KBIF||Biggs Aaf|Эль Пасо|El Paso|США|United States|US|31.849525|-106.380039|1203
BIG|PABI||Intermediate Field||Big Delta|США|United States|US|63.995160|-145.720025|393
BIH|KBIH|Бишоп|Bishop|Бишоп|Bishop|США|United States|US|37.373111|-118.363611|1257
BII|||Enyu Airfield|Бикини-Атолл|Bikini Atoll|Маршалловы острова|Marshall Islands|MH|11.522500|165.565000|3
BIJ|KBIJ||Biliau||Biliau|Папуа - Новая Гвинея|Papua New Guinea|PG|-5.583|146.333|12
BIK|WABB||Frans Kaisepo||Biak|Индонезия|Indonesia|ID|-1.190017|136.107997|14
BIL|KBIL|Биллингс|Billings|Биллингс|Billings|США|United States|US|45.807667|-108.542889|1113
BIM|MYBS||International||Bimini|Багамские острова|Bahamas|BS|25.699881|-79.264656|3
BIN|OABN|Бамиан|Bamiyan|Бамиан|Bamiyan|Афганистан|Afghanistan|AF|34.808622|67.818233|2550
BIO|LEBB||Sondica|Билбао|Bilbao|Испания|Spain|ES|43.301097|-2.910608|42
BIP|YBWM||Bulimba||Bulimba|Австралия|Australia|AU|-16.883056|143.481389|37
BIQ|LFBZ||Biarritz Parme|Биарриц|Biarritz|Франция|France|FR|43.468333|-1.531111|75
BIR|VNVT|Биратнагар|Biratnagar|Биратнагар|Biratnagar|Непал|Nepal|NP|26.484167|87.264444|72
BIS|KBIS|Бисмарк|Bismarck|Бисмарк|Bismarck|США|United States|US|46.772722|-100.745750|506
BIT|VNBT|Байтади|Baitadi|Байтади|Baitadi|Непал|Nepal|NP|29.465263|80.549156|1280
BIU|BIBD|Билдудалур|Bildudalur|Билдудалур|Bildudalur|Исландия|Iceland|IS|65.641389|-23.546111|5
BIV|FEFR|Бриа|Bria|Бриа|Bria|Центральноафриканская Республика|Central African Republic|CF|6.527778|21.989444|602
BIW|YBIL||Billiluna||Billiluna|Австралия|Australia|AU|-19.564722|127.671944|40
BIX|KBIX||Keesler AFB||Biloxi|США|United States|US|30.410425|-88.924433|10
BIY|FABE|Бишо|Bisho|Бишо|Bisho|ЮАР|South Africa|ZA|-32.897150|27.279111|594
BIZ||Бимин|Bimin|Бимин|Bimin|Папуа - Новая Гвинея|Papua New Guinea|PG|-5.283|142.017|1676
BJA|DAAE||Bejaia||Bejaia|Алжир|Algeria|DZ|36.711944|5.069444|6
BJB|OIMN||Bojnord||Bojnord|Босния и Герцеговина|Bosnia And Herzegovina|BA|37.492958|57.308219|1066
BJC|KBJC||Jeffco||Broomfield|США|United States|US|39.908806|-105.117194|1729
BJD|BIBK|Баккафьордур|Bakkafjordur|Баккафьордур|Bakkafjordur|Исландия|Iceland|IS|66.021944|-14.824444|26
BJF|ENBS|Ботсфьорд|Batsfjord|Ботсфьорд|Batsfjord|Норвегия|Norway|NO|70.600278|29.692500|149
BJG||Болаанг|Bolaang|Болаанг|Bolaang|Индонезия|Indonesia|ID|0.933|124.167|
BJH|VNBG|Баджханг|Bajhang|Баджханг|Bajhang|Непал|Nepal|NP|29.538960|81.185364|1250
BJI|KBJI||Bemidji||Bemidji|США|United States|US|47.510722|-94.934722|424
BJJ|KBJJ||Wayne County|Вустер|Wooster|США|United States|US|40.874833|-81.888250|346
BJK|WAPK|Бенджина|Benjina|Бенджина|Benjina|Индонезия|Indonesia|ID|-6.066200|134.273928|25
BJL|GBYD||Yundum International||Banjul|Гамбия|Gambia|GM|13.337961|-16.652206|29
BJM|HBBA||International||Bujumbura|Бурунди|Burundi|BI|-3.324019|29.318519|787
BJN||Бахоне|Bajone|Бахоне|Bajone|Мозамбик|Mozambique|MZ|-17.167|37.950|45
BJO|SLBJ|Бермехо|Bermejo|Бермехо|Bermejo|Аргентина|Argentina|AR|-22.773336|-64.312881|381
BJP|||Braganca Paulista||Braganca Paulista|Бразилия|Brazil|BR|-4.6333333333333|-39.766666666667|
BJR|HABD|Бахар-Дар|Bahar Dar|Бахар-Дар|Bahar Dar|Эфиопия|Ethiopia|ET|11.608075|37.321644|1821
BJT|SKBO||Bentota River||Bentota River|Шри-Ланка|Sri Lanka|LK|6.4211111111111|79.998888888889|
BJU|VNBR||Bajura Arpt|Баджура|Bajura|Непал|Nepal|NP|29.502|81.669|1311
BJV|LTFE||Milas Airport|Бодрум|Bodrum|Турция|Turkey|TR|37.250611|27.664311|6
BJW|WRKB|Баджава|Bajawa|Баджава|Bajawa|Индонезия|Indonesia|ID|-8.817|120.983|1319
BJX|MMLO||Del Bajнo International||Leуn|Мексика|Mexico|MX|20.993464|-101.480847|1815
BJY|LYBT||Batajnica|Белград|Belgrade|Сербия|Serbia|RS|44.935331|20.257506|81
BJZ|LEBZ||Talaveral La Real|Бадахос|Badajoz|Испания|Spain|ES|38.891250|-6.821333|186
BKA|UUBB|Быково|Bykovo|Москва|Moscow|Россия|Russian Federation|RU|55.617222|38.059999|130
BKB|VIBK|Биканер|Bikaner|Биканер|Bikaner|Индия|India|IN|28.070606|73.207161|229
BKC|PABL||Buckland||Buckland|США|United States|US|65.981565|-161.149071|9
BKD|KBKD||Stephens County||Breckenridge|США|United States|US|32.718753|-98.891597|391
BKE|KBKE||Baker||Baker|США|United States|US|44.837350|-117.809144|1028
BKF|KBKF||Lake Brooks SPB||Katmai National Park|США|United States|US|58.554843|-155.777388|11
BKH|PHBK||Barking Sands PMRF||Kekaha|США|United States|US|22.022774|-159.785059|7
BKI|WBKK||Kota-Kinabalu International Airport||Kota-Kinabalu|Малайзия|Malaysia|MY|5.937208|116.051181|3
BKJ|GUOK|Боке|Boke|Боке|Boke|Гвинея|Guinea|GN|10.965833|-14.281111|50
BKK|VTBS||Suvarnabhumi International|Бангкок|Bangkok|Таиланд|Thailand|TH|13.681108|100.747283|2
BKL|KBKL||Burke Lakefront||Cleveland|США|United States|US|41.517500|-81.683333|178
BKM|WBGQ||Bakalalan||Bakalalan|Малайзия|Malaysia|MY|3.988611|115.618889|884
BKN|DRRB||Birni Nkoni||Birni Nkoni|Нигер|Niger|NE|13.800|5.250|268
BKO|GABS||Bamako||Bamako|Мали|Mali|ML|12.533544|-7.949944|380
BKP|YBAW||Barkly Downs||Barkly Downs|Австралия|Australia|AU|-20.464167|138.471111|244
BKQ|YBCK||Blackall||Blackall|Австралия|Australia|AU|-24.427778|145.428611|283
BKR|FTTK|Бокоро|Bokoro|Бокоро|Bokoro|Чад|Chad|TD|12.385278|17.070833|300
BKS|WIPL||Padangkemiling|Бенгкулу|Bengkulu|Индонезия|Indonesia|ID|-3.863700|102.339036|15
BKT|KBKT||Blackstone AAF||Blackstone|США|United States|US|37.074346|-77.957346|134
BKU|FMSV||Betioky||Betioky|Мадагаскар|Madagascar|MG|-23.733|44.389|280
BKW|KBKW||Beckley||Beckley|США|United States|US|37.787326|-81.124164|763
BKX|KBKX||Brookings||Brookings|США|United States|US|44.304833|-96.816944|502
BKY|FZMA|Кавуму|Kavumu||Bukavu|Демократическая республика Конго|Democratic Republic Of Congo|CD|-2.308978|28.808803|1720
BKZ|HTBU|Букоба|Bukoba|Букоба|Bukoba|Танзания|Tanzania|TZ|-1.300|31.800|1141
BLA|SVBC||Gen J A Anzoategui|Барселона|Barcelona|Венесуэла|Venezuela|VE|10.107139|-64.689161|8
BLB|MPHO|Балбоа|Balboa|Балбоа|Balboa|Панама|Panama|PA|8.914794|-79.599633|16
BLC|||Bamenda|Бали|Bali|Камерун|Cameroon|CM|5.894722|10.033333|1239
BLD|KBVU||Boulder City||Boulder City|США|United States|US|35.947480|-114.861097|671
BLE|ESSD||Dala Airport|Борланг|Borlange|Швеция|Sweden|SE|60.422017|15.515211|153
BLF|KBLF||Princeton||Princeton|США|United States|US|37.295806|-81.207694|871
BLG|WBGC||Belaga||Belaga|Малайзия|Malaysia|MY|2.636111|113.760556|61
BLH|KBLH||Blythe||Blythe|США|United States|US|33.619167|-114.716889|122
BLI|KBLI||Bellingham||Bellingham|США|United States|US|48.792694|-122.537528|52
BLJ|DABT|Батна|Batna|Батна|Batna|Алжир|Algeria|DZ|35.759167|6.322500|822
BLK|EGNH||Blackpool Airport||Blackpool|Великобритания|United Kingdom|GB|53.771667|-3.028611|10
BLL|EKBI|Биллунд|Billund|Биллунд|Billund|Дания|Denmark|DK|55.740322|9.151778|75
BLM|KBLM||Monmouth Executive Airport||Belmar - Farmingdale|США|United States|US|40.186750|-74.124556|47
BLN|YBLA||Benalla||Benalla|Австралия|Australia|AU|-36.551944|146.006667|173
BLO|BIBL||Blonduos||Blonduos|Исландия|Iceland|IS|65.645000|-20.287500|40
BLP|SPBL|Беллависта|Bellavista|Беллависта|Bellavista|Перу|Peru|PE|-7.060556|-76.582222|299
BLQ|LIPE||Guglielmo Marconi|Болонья|Bologna|Италия|Italy|IT|44.535444|11.288667|37
BLR|VOBL||Bangalore International Airport|Бангалор|Bangalore|Индия|India|IN|13.198867|77.705472|915
BLS|YBLL||Bollon||Bollon|Австралия|Australia|AU|-28.052500|147.480000|182
BLT|YBTR||Blackwater||Blackwater|Австралия|Australia|AU|-23.603056|148.806944|200
BLU|KBLU||Blue Canyon||Blue Canyon|США|United States|US|39.274972|-120.709750|1611
BLV|KBLV|Белльвиль|Belleville|Белльвиль|Belleville|США|United States|US|38.545167|-89.835194|140
BLW|KLEX||Bellows Field||Waimanalo|США|United States|US|21.35|-157.71666666667|3
BLX|LIDB|Беллуно|Belluno|Беллуно|Belluno|Италия|Italy|IT|46.166667|12.245278|378
BLY|EIBT|Белмаллет|Belmullet|Белмаллет|Belmullet|Ирландия|Ireland|IE|54.222778|-10.030833|46
BLZ|FWCL||Chileka||Blantyre|Малави|Malawi|MW|-15.679053|34.974014|779
BMA|ESSB||Bromma|Стокгольм|Stockholm|Швеция|Sweden|SE|59.354372|17.941650|14
BMB|FZFU|Бумба|Bumba|Бумба|Bumba|Демократическая республика Конго|Democratic Republic Of Congo|CD|2.182778|22.481667|361
BMC|KBMC||Brigham City||Brigham City|США|United States|US|41.552389|-112.062222|1289
BMD|FMML|Бело|Belo|Бело|Belo|Мадагаскар|Madagascar|MG|-19.686667|44.541944|47
BME|YBRM|Брум|Broome|Брум|Broome, Western Australia|Австралия|Australia|AU|-17.944722|122.231667|17
BMF|FEGM|Бакума|Bakouma|Бакума|Bakouma|Центральноафриканская Республика|Central African Republic|CF|5.694|22.801|500
BMG|KBMG||Bloomington||Bloomington|США|United States|US|39.146021|-86.616680|258
BMH||Бомай|Bomai|Бомай|Bomai|Папуа - Новая Гвинея|Papua New Guinea|PG|-6.367|144.633|1000
BMI|KBMI||Central Illinois Regional Airport at Bloomington-Normal||Bloomington/Normal, IL|США|United States|US|40.477111|-88.915917|265
BMJ|SYBR|Барамита|Baramita|Барамита|Baramita|Гайана|Guyana|GY|7.417|-60.500|171
BMK|EDWR|Боркум|Borkum|Боркум|Borkum|Германия|Germany|DE|53.595500|6.709167|1
BML|KBML|Берлинский муниципальный аэропорт|Berlin Municipal Airport|Берлин|Berlin|США|United States|US|44.575361|-71.175917|354
BMM|FOOB|Битам|Bitam|Битам|Bitam|Габон|Gabon|GA|2.075638|11.493195|600
BMN|ORBB|Бамерни|Bamerny|Бамерни|Bamerny|Ирак|Iraq|IQ|37.098750|43.266583|1053
BMO|VYBM|Бамо|Bhamo|Бамо|Bhamo|Мьянма|Myanmar|MM|24.269033|97.246153|113
BMP|YBPI|Бремптон Айленд|Brampton Island|Бремптон Айленд|Brampton Island|Австралия|Australia|AU|-20.803|149.270|11
BMQ||Бамбури|Bamburi|Бамбури|Bamburi|Кения|Kenya|KE|-3.981944|39.730556|15
BMR|EDWZ|Балтрум|Baltrum||Baltrum Island|Германия|Germany|DE|53.726944|7.373055|2
BMS|SNBU||Brumado||Brumado|Бразилия|Brazil|BR|-14.255383|-41.817458|510
BMT|KBMT|Бомонт Муни|Beaumont Muni||Beaumont|США|United States|US|30.070204|-94.215097|10
BMU|WADB|Бима|Bima|Бима|Bima|Индонезия|Indonesia|ID|-8.539647|118.687322|1
BMV|VVBM||Phung-Duc||Banmethuot|Вьетнам|Vietnam|VN|12.668311|108.120272|527
BMW|DATM|Борж-Бажи-Мохтар|Bordj Badji Mokhtar|Борж-Бажи-Мохтар|Bordj Badji Mokhtar|Алжир|Algeria|DZ|21.375000|0.923889|397
BMX|PABM||Big Mountain||Big Mountain|США|United States|US|59.361247|-155.258821|202
BMY|NWWC||Belep Island||Belep Island|Новая Каледония|New Caledonia|NC|-19.720556|163.661111|93
BMZ||Баму|Bamu|Баму|Bamu|Папуа - Новая Гвинея|Papua New Guinea|PG|-7.833|143.233|6
BNA|KBNA||Nashville International||Nashville, TN|США|United States|US|36.124472|-86.678194|183
BNB|FZGN|Боэнде|Boende|Боэнде|Boende|Демократическая республика Конго|Democratic Republic Of Congo|CD|-0.286|20.884|356
BNC|FZNP|Бени|Beni|Бени|Beni|Демократическая республика Конго|Democratic Republic Of Congo|CD|0.575000|29.473889|1072
BND|OIKB|Бандар-Аббас|Bandar Abbas|Бандар-Аббас|Bandar Abbas|Иран|Iran|IR|27.218317|56.377850|7
BNE|YBBN||Brisbane International|Брисбан|Brisbane|Австралия|Australia|AU|-27.384167|153.117500|4
BNF|KBNF||Warm Spring Bay SPB||Baranof|США|United States|US|57.088826|-134.833141|0
BNG|KBNG||Banning||Banning|США|United States|US|33.922583|-116.850528|676
BNH|VDPP||Barnes|Хартфорд|Hartford|США|United States|US|41.766388888889|-72.683333333333|
BNI|DNBE|Бенин-Сити|Benin City|Бенин-Сити|Benin City|Нигерия|Nigeria|NG|6.316981|5.599503|79
BNK|YBNA||Ballina Byron Gateway|Баллина|Ballina|Австралия|Australia|AU|-28.833889|153.562500|2
BNL|KBNL||Barnwell Regional||Barnwell, SC|США|United States|US|33.258001|-81.387933|75
BNM||Бодинуму|Bodinumu|Бодинуму|Bodinumu|Папуа - Новая Гвинея|Papua New Guinea|PG|-9.133|147.667|1120
BNN|ENBN||Bronnoy|Броннойзунд|Bronnoysund|Норвегия|Norway|NO|65.461111|12.217500|8
BNO|KBNO||Burns||Burns|США|United States|US|43.591907|-118.955436|1264
BNP|OPBN|Банну|Bannu|Банну|Bannu|Пакистан|Pakistan|PK|32.967|70.533|404
BNQ|RPUZ||Baganga||Baganga|Филиппины|Philippines|PH|7.600|126.567|2
BNR|DFOB|Банфора|Banfora|Банфора|Banfora|Буркина-Фасо|Burkina Faso|BF|10.683|-4.717|300
BNS|SVBI|Баринас|Barinas|Баринас|Barinas|Венесуэла|Venezuela|VE|8.619575|-70.220825|203
BNT||Бунди|Bundi|Бунди|Bundi|Папуа - Новая Гвинея|Papua New Guinea|PG|-5.733|145.217|1280
BNU|SSBL|Блюменау|Blumenau|Блюменау|Blumenau|Бразилия|Brazil|BR|-26.830644|-49.090314|18
BNV||Боана|Boana|Боана|Boana|Папуа - Новая Гвинея|Papua New Guinea|PG|-6.417|146.817|853
BNW|KBNW||Boone||Boone|США|United States|US|42.049556|-93.847611|354
BNX|LQBK|Баня-Лука|Banja Luka|Баня-Лука|Banja Luka|Босния и Герцеговина|Bosnia And Herzegovina|BA|44.941444|17.297501|122
BNY|AGGB|Беллона|Bellona|Беллона|Bellona|Соломоновы острова|Solomon Islands|SB|-11.302222|159.798056|17
BNZ||Банц|Banz|Банц|Banz|Папуа - Новая Гвинея|Papua New Guinea|PG|-5.800|144.600|1564
BOA|FZAJ|Бома|Boma|Бома|Boma|Демократическая республика Конго|Democratic Republic Of Congo|CD|-5.854|13.064|8
BOB|NTTB||Motu-mute||Bora Bora|Французская Полинезия|French Polynesia|PF|-16.444378|-151.751286|3
BOC|MPBO||Bocas Del Toro||Bocas Del Toro|Панама|Panama|PA|9.340853|-82.250842|3
BOD|LFBD||Mйrignac|Бордо|Bordeaux|Франция|France|FR|44.828611|-0.715278|51
BOE|FCOB|Бунджи|Boundji|Бунджи|Boundji|Конго|Congo|CG|-1.033|15.383|380
BOF|KBOF||Bolling AFB||Washington|Канада|Canada|CA|38.842891|-77.016087|6
BOG|SKBO||Eldorado International|Богота|Bogota|Колумбия|Colombia|CO|4.703056|-74.138333|2548
BOH|EGHH||Bournemouth International||Bournemouth|Великобритания|United Kingdom|GB|50.780000|-1.842500|12
BOI|KBOI||Boise Air Terminal/Gowen Field||Boise, ID|США|United States|US|43.564361|-116.222861|875
BOJ|LBBG||Bourgas|Бургас|Bourgas|Болгария|Bulgaria|BG|42.569583|27.515236|41
BOK|KBOK||Brookings State||Brookings|США|United States|US|42.074556|-124.290094|140
BOL|EGQB||Bally Kelly||Bally Kelly|Великобритания|United Kingdom|GB|55.059999|-7.015833|
BOM|VABB||Chhatrapati Shivaji International||Mumbai|Индия|India|IN|19.088686|72.867919|11
BON|TNCB||Flamingo International||Kralendijk|Нидерландские Антильские острова|Netherlands Antilles|AN|12.131044|-68.268511|6
BOO|ENBO|Бодо|Bodo|Бодо|Bodo|Норвегия|Norway|NO|67.269167|14.365278|13
BOP|FEFO|Буар|Bouar|Буар|Bouar|Центральноафриканская Республика|Central African Republic|CF|5.958|15.637|1024
BOQ||Боку|Boku|Боку|Boku|Папуа - Новая Гвинея|Papua New Guinea|PG|-6.533|155.333|107
BOR|LFSQ||Fontaine|Белфорт|Belfort|Франция|France|FR|47.655556|7.010833|368
BOS|KBOS||Logan International|Бостон|Boston|США|United States|US|42.362972|-71.006417|6
BOT|||Boset||Boset|Папуа - Новая Гвинея|Papua New Guinea|PG|-7.233|141.083|
BOU|LFLD|Борже|Bourges|Борже|Bourges|Франция|France|FR|47.064453|2.378953|161
BOV||Боанг|Boang|Боанг|Boang|Папуа - Новая Гвинея|Papua New Guinea|PG|-3.383|153.267|3
BOW|KBOW||Bartow||Bartow|США|United States|US|27.943361|-81.783417|38
BOX|YBRL||Borroloola||Borroloola|Австралия|Australia|AU|-16.075278|136.302222|17
BOY|DFOO|Борго|Borgo||Bobo Dioulasso|Буркина-Фасо|Burkina Faso|BF|11.160056|-4.330969|461
BOZ|FEGZ|Бозум|Bozoum|Бозум|Bozoum|Центральноафриканская Республика|Central African Republic|CF|6.344167|16.321943|675
BPA|EGEP||Grumman||Bethpage|США|United States|US|40.75|-73.483333333333|
BPB||Бориди|Boridi|Бориди|Boridi|Папуа - Новая Гвинея|Papua New Guinea|PG|-9.133|147.533|
BPC|FKKV||Bamenda||Bamenda|Камерун|Cameroon|CM|6.039239|10.122639|1239
BPD||Бапи|Bapi|Бапи|Bapi|Папуа - Новая Гвинея|Papua New Guinea|PG|-7.733|147.017|838
BPE|VYBG|Баган|Bagan|Баган|Bagan|Центральноафриканская Республика|Central African Republic|CF|5.9|16.466666666667|
BPF|AGBT||Batuna Aerodrome||Batuna|Соломоновы острова|Solomon Islands|SB|-8.561667|158.119167|
BPG|SBBW||Barra Do Garcas||Barra Do Garcas|Бразилия|Brazil|BR|-15.861344|-52.388894|350
BPH|RPMF|Бислиг|Bislig|Бислиг|Bislig|Филиппины|Philippines|PH|8.195950|126.321597|4
BPI|KBPI||Big Piney-marbleton||Big Piney|США|United States|US|42.585070|-110.111153|2131
BPK|KBPK||Biangabip||Biangabip|Папуа - Новая Гвинея|Papua New Guinea|PG|36.368942|-92.470528|283
BPN|WALL||Sepingan|Баликпапан|Balikpapan|Индонезия|Indonesia|ID|-1.268272|116.894478|4
BPS|SBPS|Порто Сегуро|Porto Seguro|Порто Сегуро|Porto Seguro|Бразилия|Brazil|BR|-16.438638|-39.080917|51
BPT|KBPT||Jefferson County||Beaumont|США|United States|US|29.950833|-94.020694|5
BPU||Беппу|Beppu|Беппу|Beppu|Япония|Japan|JP|33.300|131.533|60
BPX|ZUBD||Qamdo Bangda||Bangda|Китай|China|CN|30.553611|97.108333|4334
BPY|FMNQ|Бесалампи|Besalampy|Бесалампи|Besalampy|Мадагаскар|Madagascar|MG|-16.741945|44.481388|38
BQA|RPUR|Балер|Baler|Балер|Baler|Филиппины|Philippines|PH|15.729836|121.500133|33
BQB|VOML||Bussellton||Bussellton|Австралия|Australia|AU|-33.6925|115.39527777778|17
BQE|GGBU|Бубаку|Bubaque|Бубаку|Bubaque|Гвинея-Бисау|Guinea-Bissau|GW|11.297500|-15.838056|6
BQH|EGKB||London Biggin Hill||Biggin Hill|Великобритания|United Kingdom|GB|51.330833|0.032500|182
BQI|KPBI||Bagani||Bagani|Мали|Mali|ML|11.4|-7.85|
BQK|KBQK||Glynco Jetport||Brunswick|США|United States|US|31.259034|-81.466316|8
BQL|YBOU||Boulia||Boulia|Австралия|Australia|AU|-22.913333|139.899722|165
BQN|TJBQ||Borinquen||Aguadilla|Пуэрто Рико|Puerto Rico|PR|18.494861|-67.129444|72
BQO|DIBN||Bouna||Bouna|Кот д&#039;Ивуар|Cote D&#039;Ivoire|CI|9.277500|-3.025278|350
BQQ|SNBX||Barra||Barra|Великобритания|United Kingdom|GB|-11.080767|-43.147494|410
BQS|UHBB|Игнатьево|Ignatievo|Благовещенск|Blagoveschensk|Россия|Russian Federation|RU|50.425394|127.412478|194
BQT|UMBB|Брест|Brest|Брест|Brest|Беларусь|Belarus|BY|52.108334|23.898056|143
BQU|TVSB||J.F. Mitchell||Bequia|Сент-Винсент и Гренадины|Saint Vincent and the Grenadines|VC|12.988444|-61.262033|5
BQV|KBQV||Bartlett SPB||Gustavus|США|United States|US|58.455208|-135.885170|0
BQW|YBGO||Balgo Hills||Balgo Hills|Австралия|Australia|AU|-20.148333|127.973333|439
BRA|SNBR||Barreiras||Barreiras|Бразилия|Brazil|BR|-12.078892|-45.008994|746
BRB|SBRR||Barreirinhas||Barreirinhas|Бразилия|Brazil|BR|-12.079722|-45.010000|470
BRC|SAZS||International||San Carlos DeBariloche|Аргентина|Argentina|AR|-41.151172|-71.157542|846
BRD|KBRD||Brainerd Lakes Regional||Brainerd, MN|США|United States|US|46.401750|-94.135583|376
BRE|EDDW|Бремен|Bremen|Бремен|Bremen|Германия|Germany|DE|53.047500|8.786667|4
BRF|||Bradford||Bradford|Великобритания|United Kingdom|GB|51|-3.1833333333333|
BRG|HEBA||Municipal||Whitesburg|США|United States|US|37.116666666667|-82.816666666667|609
BRH||Брахман|Brahman|Брахман|Brahman|Папуа - Новая Гвинея|Papua New Guinea|PG|-5.733|145.367|152
BRI|LIBD||Palese|Бари|Bari|Италия|Italy|IT|41.138856|16.760594|54
BRJ|||Bright||Bright|Австралия|Australia|AU|-36.733|146.967|
BRK|YBKE||Bourke||Bourke|Австралия|Australia|AU|-30.039167|145.951667|107
BRL|KBRL||Burlington||Burlington|США|United States|US|40.783225|-91.125506|213
BRM|SVBM|Баркисимето|Barquisimeto|Баркисимето|Barquisimeto|Венесуэла|Venezuela|VE|10.042747|-69.358619|622
BRN|LSZB||Belp|Берне|Berne|Швейцария|Switzerland|CH|46.914100|7.497153|510
BRO|KBRO||South Padre Is. Intl||Brownsville|США|United States|US|25.906833|-97.425833|7
BRP||Биару|Biaru|Биару|Biaru|Папуа - Новая Гвинея|Papua New Guinea|PG|-7.667|146.350|1433
BRQ|LKTB||Turany|Брно|Brno|Чехия|Czech Republic|CZ|49.151269|16.694433|237
BRR|EGPR|Норт Бэй|North Bay||Barra|Великобритания|United Kingdom|GB|57.022778|-7.443056|2
BRS|EGGD||Bristol|Бристоль|Bristol|Великобритания|United Kingdom|GB|51.382669|-2.719089|190
BRT|YBTI||Bathurst Island||Bathurst Island|Австралия|Australia|AU|-11.769167|130.619722|20
BRU|EBBR|Аэропорт Брюсселя|Brussels Airport|Брюссель|Brussels|Бельгия|Belgium|BE|50.901389|4.484444|56
BRV|EDWB|Бременхавен|Bremerhaven|Бременхавен|Bremerhaven|Германия|Germany|DE|53.507081|8.572878|3
BRW|PABR||Wiley Post/W.Rogers M||Barrow|США|United States|US|71.284889|-156.768583|16
BRX|MDBH|Барахона|Barahona|Барахона|Barahona|Доминиканская Республика|Dominican Republic|DO|18.251464|-71.120400|3
BRY|KBRY||Samuels Field||Bardstown, KY|США|United States|US|37.814333|-85.499639|204
BRZ|||Borotou||Borotou|Кот д&#039;Ивуар|Cote D&#039;Ivoire|CI|8.733|-7.500|
BSA|HCMF|Боссасо|Bossaso|Боссасо|Bossaso|Сомали|Somalia|SO|11.275278|49.149444|1
BSB|SBBR||Presidente Juscelino Kubitschek|Бразилия|Brasilia|Бразилия|Brazil|BR|-15.871100|-47.918625|1060
BSC|SKBS|Бахья-Солано|Bahia Solano|Бахья-Солано|Bahia Solano|Колумбия|Colombia|CO|6.202936|-77.394800|24
BSD|ZPBS|Баошань|Baoshan|Баошань|Baoshan|Китай|China|CN|25.051667|99.168056|
BSE|WBGN|Семантан|Sematan|Семантан|Sematan|Малайзия|Malaysia|MY|1.813611|109.762778|3
BSF|PHSF||Bradshaw AAF||Pohakuloa|Финляндия|Finland|FI|19.760013|-155.553766|1887
BSG|FGBT|Бата|Bata|Бата|Bata|Экваториальная Гвинея|Equatorial Guinea|GQ|1.905469|9.805681|4
BSH|EGKA||Brighton||Brighton|Великобритания|United Kingdom|GB|50.835556|-0.297222|2
BSI|WBKN||Blairsville||Blairsville|США|United States|US|40.433333333333|-79.266666666667|
BSJ|YBNS||Bairnsdale||Bairnsdale|Австралия|Australia|AU|-37.887500|147.567778|50
BSK|DAUB|Бискра|Biskra|Бискра|Biskra|Алжир|Algeria|DZ|34.801667|5.741667|88
BSL|LFSB||Euroairport Basel Mulhouse Freiburg||Mulhouse/basel|Швейцария|Switzerland|CH|47.58999999|7.52999999|269
BSM|OINJ||Bishe-kola||Bishe-kola|Иран|Iran|IR|36.655144|52.349594|
BSN|FEFS|Боссанга|Bossangoa|Боссанга|Bossangoa|Центральноафриканская Республика|Central African Republic|CF|6.492|17.429|499
BSO|RPUO|Баско|Basco|Баско|Basco|Филиппины|Philippines|PH|20.451322|121.979883|89
BSP||Бенсбах|Bensbach|Бенсбах|Bensbach|Папуа - Новая Гвинея|Papua New Guinea|PG|-8.850|141.250|9
BSQ|KBSQ||Bisbee Municipal Arpt||Bisbee|США|United States|US|31.363990|-109.883129|1457
BSR|ORMM||International||Basra|Ирак|Iraq|IQ|30.549068|47.662142|3
BSS|SNBS||Balsas||Balsas|Бразилия|Brazil|BR|-7.526033|-46.053275|283
BST|OABT|Бост|Bost|Бост|Bost|Афганистан|Afghanistan|AF|31.559017|64.364099|751
BSU|FZEN|Базанкусу|Basankusu|Базанкусу|Basankusu|Заир|Zaire|ZR|1.224722|19.788889|371
BSV|||Besakoa||Besakoa|Папуа - Новая Гвинея|Papua New Guinea|PG|-7.241|141.092|18
BSW|KBSW||Boswell Bay||Boswell Bay|США|United States|US|60.423064|-146.145909|70
BSX|VYPN|Бассейн|Bassein|Бассейн|Bassein|Мьянма|Myanmar|MM|16.815233|94.779911|6
BSY|HCMD|Бардера|Bardera|Бардера|Bardera|Сомали|Somalia|SO|2.330556|42.311667|1280
BSZ|KIAH||Bartletts||Bartletts|США|United States|US|58.266666666667|-157.48333333333|
BTA|FKKO||Yaoundй||Yaoundй|Камерун|Cameroon|CM|4.548611|13.726111|650
BTB|FCOT|Бету|Betou|Бету|Betou|Конго|Congo|CG|3.050|18.500|356
BTC|VCCB||Batticaloa||Batticaloa|Шри-Ланка|Sri Lanka|LK|7.705756|81.678783|6
BTD|YBRU||Brunette Downs||Brunette Downs|Австралия|Australia|AU|-18.635556|135.939444|218
BTE|GFBN|Бонте|Bonthe|Бонте|Bonthe|Сьерра-Леоне|Sierra Leone|SL|7.532222|-12.518611|4
BTF|KBTF||Salt Lake Skypark||Bountiful|США|United States|US|40.869389|-111.927161|1291
BTG|FEGF|Батангафо|Batangafo|Батангафо|Batangafo|Центральноафриканская Республика|Central African Republic|CF|7.314167|18.308889|420
BTH|WIDD||Hang Nadim||Batam|Индонезия|Indonesia|ID|1.121028|104.118753|38
BTI|PABU||Barter Island||Barter Island|США|United States|US|70.172778|-146.836111|5
BTJ|WITT||Sultan Lskandarmuda Airport|Банда Асе|Banda Aceh|Индонезия|Indonesia|ID|5.523522|95.420372|20
BTK|UIBB|Братск|Bratsk|Братск|Bratsk|Россия|Russian Federation|RU|56.370556|101.698331|491
BTL|KBTL||WK Kellogg Regional||Battle Creek|США|United States|US|42.307278|-85.251480|290
BTM|KBTM||Bert Mooney Airport||Butte, (MT)|США|United States|US|45.954806|-112.497472|1692
BTN|KBBP||Bennettsville||Bennettsville|США|United States|US|34.621709|-79.734359|45
BTO||Ботопасье|Botopasie|Ботопасье|Botopasie|Суринам|Suriname|SR|4.217|-55.450|74
BTP|KBTP||Butler County - Kenny Scholter Field||Butler|США|United States|US|40.776583|-79.951083|380
BTQ|HRYI|Бутаре|Butare|Бутаре|Butare|Руанда|Rwanda|RW|-2.595833|29.736667|1768
BTR|KBTR||Ryan|Батон Руж|Baton Rouge|США|United States|US|30.532906|-91.149877|21
BTS|LZIB||M. R. Љtefбnika|Братислава|Bratislava|Словакия|Slovakia|SK|48.170167|17.212667|133
BTT|PABT||Bettles||Bettles|США|United States|US|66.913944|-151.529056|197
BTU|WBGB||Bintulu|Бинтулу|Bintulu|Малайзия|Malaysia|MY|3.123850|113.020472|23
BTV|KBTV||Burlington International||Burlington|США|United States|US|44.471861|-73.153278|102
BTW|WAOC|Бату-Личин|Batu Licin|Бату-Личин|Batu Licin|Индонезия|Indonesia|ID|-3.412408|115.995136|1
BTX|YBEO||Betoota||Betoota|Австралия|Australia|AU|-25.695000|140.736667|76
BTY|KBTY||Beatty||Beatty|США|United States|US|36.861057|-116.787004|966
BTZ|LTBE||Bursa Airport|Бурса|Bursa|Турция|Turkey|TR|40.232500|29.009444|101
BUA|AYBK||Buka||Buka|Папуа - Новая Гвинея|Papua New Guinea|PG|-5.422317|154.672667|3
BUB|KBUB||Municipal||Burwell|США|United States|US|41.776694|-99.149750|665
BUC|YBKT||Burketown||Burketown|Австралия|Australia|AU|-17.748611|139.534444|6
BUD|LHBP||Ferihegy|Будапешт|Budapest|Венгрия|Hungary|HU|47.436933|19.255592|151
BUG|FNBG||Gen V Deslandes|Бенгела|Benguela|Ангола|Angola|AO|-12.609025|13.403711|36
BUI|WAJB|Бокондини|Bokondini|Бокондини|Bokondini|Индонезия|Indonesia|ID|-3.700|138.633|1400
BUJ|DAAD||Ain Eddis||Boussaada|Алжир|Algeria|DZ|35.331389|4.204444|459
BUK|OYBQ|Альбук|Albuq|Альбук|Albuq|Йемен|Yemen|YE|15.833|43.767|
BUL||Булоло|Bulolo|Булоло|Bulolo|Папуа - Новая Гвинея|Papua New Guinea|PG|-7.217|146.633|683
BUM|KBUM||Butler||Butler|США|United States|US|38.289770|-94.340127|272
BUN|SKBU|Буэнавентура|Buenaventura|Буэнавентура|Buenaventura|Колумбия|Colombia|CO|3.819592|-76.989625|15
BUO|HCMV|Бурао|Burao|Бурао|Burao|Эфиопия|Ethiopia|ET|9.530000|45.556944|1036
BUP|VIBT|Бхатинда|Bhatinda|Бхатинда|Bhatinda|Индия|India|IN|30.270139|74.755772|202
BUQ|FVBU|Булавайо|Bulawayo|Булауайо|Bulawayo|Зимбабве|Zimbabwe|ZW|-20.017431|28.617869|1329
BUR|KBUR||Bob Hope|Бурбанк|Burbank|США|United States|US|34.200667|-118.358667|237
BUS|UGSB|Батуми|Batumi|Батуми|Batumi|Грузия|Georgia|GE|41.610278|41.599694|32
BUT||Бертонвуд|Burtonwood|Бертонвуд|Burtonwood|Великобритания|United Kingdom|GB|53.400|-2.633|21
BUU|||Buyo||Buyo|Кот д&#039;Ивуар|Cote D&#039;Ivoire|CI|6.267|-7.050|
BUV|SUBU|Белла-Юнион|Bella Union|Белла-Юнион|Bella Union|Уругвай|Uruguay|UY|-30.319167|-57.559444|83
BUW|WAWB||Baubau||Baubau|Индонезия|Indonesia|ID|-5.486875|122.569047|50
BUX|FZKA|Буниа|Bunia|Буниа|Bunia|Демократическая республика Конго|Democratic Republic Of Congo|CD|1.565719|30.220833|1233
BUY|YBUN|Банбери|Bunbury|Банбери|Bunbury|Австралия|Australia|AU|-33.378332|115.676667|16
BUZ|OIBB|Бушехр|Bushehr|Бушехр|Bushehr|Иран|Iran|IR|28.944811|50.834637|21
BVA|LFOB||Beauvais-Tille|Париж|Paris|Франция|France|FR|49.454444|2.112778|109
BVB|SBBV||Boa Vista||Boa Vista|Бразилия|Brazil|BR|2.846311|-60.690069|84
BVC|GVBA||Rabil||Boa Vista|Кабо-Верде|Cape Verde|CV|16.136531|-22.888897|21
BVD|NTAA||Sea Port||Beaver Inlet|США|United States|US|53.733333333333|-166.31666666667|
BVE|LFBV||Laroche|Брив-ла-Гайард|Brive-La-Gaillarde|Франция|France|FR|45.149583|1.474364|116
BVF|NFNU||Dama|Буа|Bua|Фиджи|Fiji|FJ|-16.800|178.617|18
BVG|ENBV|Берлевог|Berlevag|Берлевог|Berlevag|Норвегия|Norway|NO|70.871389|29.034167|13
BVH|SBVH||Vilhena||Vilhena|Бразилия|Brazil|BR|-12.694375|-60.098269|615
BVI|YBDV||Birdsville|Бирдсвилл|Birdsville, Queensland|Австралия|Australia|AU|-25.897500|139.347500|48
BVK|SLHJ||Huacaraje||Huacaraje|Боливия|Bolivia|BO|-13.533|-63.800|
BVL|SLBU||Baures||Baures|Боливия|Bolivia|BO|-13.583|-63.583|
BVM|SNBL|Бельмонте|Belmonte|Бельмонте|Belmonte|Бразилия|Brazil|BR|-15.871694|-38.871917|10
BVO|KBVO||Bartlesville||Bartlesville|США|United States|US|36.764249|-96.011201|217
BVP||Боловип|Bolovip|Боловип|Bolovip|Папуа - Новая Гвинея|Papua New Guinea|PG|-5.350|141.650|1372
BVR|GVBR||Esperadinha||Brava|США|United States|US|14.844|-24.711|
BVS|SNVS||Breves||Breves|Бразилия|Brazil|BR|-1.636531|-50.443614|30
BVU|PABG||Beluga||Beluga|США|United States|US|61.172219|-151.043897|40
BVW|YBTV||Batavia Downs||Batavia Downs|Австралия|Australia|AU|-12.659167|142.674722|91
BVX|KBVX||Municipal||Batesville|США|United States|US|35.726222|-91.647444|142
BVY|KBVY||Beverly Municiple Airport||Beverly|США|United States|US|42.584141|-70.916144|33
BVZ|YBYS||Beverley Springs||Beverley Springs|Австралия|Australia|AU|-16.733611|125.439444|385
BWA|VNBW|Бхайрава|Bhairawa|Бхайрава|Bhairawa|Непал|Nepal|NP|27.507222|83.418056|109
BWB|YBWX||Barrow Island||Barrow Island|Австралия|Australia|AU|-20.864444|115.406111|8
BWC|KBWC||Brawley||Brawley|США|United States|US|32.992944|-115.516889|
BWD|KBWD||Brownwood||Brownwood|США|United States|US|31.793611|-98.956500|423
BWE|EDVE|Брауншвайг|Braunschweig|Брауншвайг|Braunschweig|Германия|Germany|DE|52.319167|10.556111|90
BWF|EGNL||Walney Island||Barrow-In-Furness|Великобритания|United Kingdom|GB|54.131167|-3.263667|53
BWG|KBWG||Warren County||Bowling Green|США|United States|US|36.964528|-86.419667|167
BWH|WMKB|Баттерворт|Butterworth|Баттерворт|Butterworth|Малайзия|Malaysia|MY|5.465917|100.391167|3
BWI|KBWI||Baltimore/Washington International Thurgood Marshall Airport||Baltimore/Washington|США|United States|US|39.175361|-76.668333|45
BWJ||Баван|Bawan|Баван|Bawan|Папуа - Новая Гвинея|Papua New Guinea|PG|-6.400|146.900|1311
BWK|LDSB|Бол|Bol|Бол|Bol|Хорватия|Croatia|HR|43.285719|16.679718|541
BWL|KBWL||Blackwell||Blackwell|США|United States|US|36.795865|-97.316988|321
BWM|KBPP||Bowman||Bowman|США|United States|US|46.186991|-103.428081|902
BWN|WBSB||Bandar Seri Begwan International Airport|Бандар Сери Бегаван|Bandar Seri Begawan|Бруней-Даруссалам|Brunei Darussalam|BN|4.944200|114.928353|22
BWO|UWSB|Балаково|Balakovo|Балаково|Balakovo|Россия|Russian Federation|RU|51.858333|47.745556|29
BWP|||Bewani||Bewani|Папуа - Новая Гвинея|Papua New Guinea|PG|-3.017|141.150|160
BWQ|YBRW||Brewarrina||Brewarrina|Австралия|Australia|AU|-29.973889|146.816667|126
BWS|KBWS||Blaine||Blaine|США|United States|US|48.990059|-122.732369|23
BWT|YWYY||Burnie Wynyard||Burnie|Австралия|Australia|AU|-40.998889|145.731111|19
BWU|YSBK||Sydney Bankstown|Сидней|Sydney|Австралия|Australia|AU|-33.924444|150.988333|9
BWY|||Bentwaters St|Вудбридж|Woodbridge|Великобритания|United Kingdom|GB|52.1|1.3166666666667|26
BXA|KBXA||George R Carr||Bogalusa|США|United States|US|30.813686|-89.864964|36
BXB|WASO|Бабо|Babo|Бабо|Babo|Индонезия|Indonesia|ID|-2.532242|133.438894|3
BXC|LEMG||Boxborough||Boxborough|США|United States|US|42.483611111111|-71.535277777778|
BXD|WAKE|Баде|Bade|Баде|Bade|Индонезия|Indonesia|ID|-7.150|139.567|15
BXE|GOTB|Бакель|Bakel|Бакель|Bakel|Сенегал|Senegal|SN|14.847256|-12.468264|30
BXF|VOML||Belburn||Belburn|Норвегия|Norway|NO|64.233333333333|12.5|
BXG|KBXG|Бендиго|Bendigo|Бендиго|Bendigo|Австралия|Australia|AU|33.041289|-82.002690|92
BXH|UAAH|Балхаш|Balhash|Балхаш|Balhash|Казахстан|Kazakhstan|KZ|46.893333|75.005000|441
BXI|DIBI||Boundiali||Boundiali|Кот д&#039;Ивуар|Cote D&#039;Ivoire|CI|9.533|-6.467|392
BXJ|KPBI|Бурундай|Burundai|Бурундай|Burundai|Казахстан|Kazakhstan|KZ|45.083333333333|74.016666666667|
BXK|KBXK||Buckeye Municipal||Buckeye|США|United States|US|33.420417|-112.686181|315
BXL||Блю-Лагун|Blue Lagoon|Блю-Лагун|Blue Lagoon|Фиджи|Fiji|FJ|-16.944|177.369|
BXM||Батом|Batom|Батом|Batom|Индонезия|Indonesia|ID|-2.283|139.600|
BXN|LTBV||Imsik Airport|Бодрум|Bodrum|Турция|Turkey|TR|37.140144|27.669717|62
BXO|SNBG|Буокс|Buochs|Буокс|Buochs|Гвинея-Бисау|Guinea-Bissau|GW|11.883333333333|-15.65|39
BXR|OIKM||Bam||Bam|Иран|Iran|IR|29.084169|58.450042|985
BXS|KBXS||Borrego Springs||Borrego Springs|США|United States|US|33.259028|-116.320972|158
BXT|WRLC|Бонтанг|Bontang|Бонтанг|Bontang|Индонезия|Indonesia|ID|0.117|117.467|15
BXU|RPME|Бутуан|Butuan|Бутуань|Butuan|Филиппины|Philippines|PH|8.951322|125.477972|43
BXV|BIBV||Breiddalsvik||Breiddalsvik|Исландия|Iceland|IS|64.789999|-14.022778|
BXX|||Borama International||Borama|Сомали|Somalia|SO|9.933|43.150|
BXZ|LEMG||Bunsil||Bunsil|Папуа - Новая Гвинея|Papua New Guinea|PG|0|0|
BYA|KBYA||Boundary||Boundary|США|United States|US|64.078303|-141.113375|896
BYB||Дибаа|Dibaa|Дибаа|Dibaa|ОАЭ|United Arab Emirates|AE|25.600|56.233|20
BYC|SLYA|Якуйба|Yacuiba|Якуйба|Yacuiba|Боливия|Bolivia|BO|-21.960925|-63.651669|645
BYD|OYBI|Бейда|Beidah|Бейда|Beidah|Йемен|Yemen|YE|14.133|46.550|
BYG|KBYG||Municipal||Buffalo|США|United States|US|44.381085|-106.721790|1514
BYH|KBYH||Blytheville AFB||Blytheville|США|United States|US|35.964333|-89.943944|77
BYI|KBYI||Rupert||Rupert|США|United States|US|42.542604|-113.771544|1265
BYK|DIBK||Bouake||Bouake|Кот д&#039;Ивуар|Cote D&#039;Ivoire|CI|7.738800|-5.073667|375
BYL||Белла-Елла|Bella Yella|Белла-Елла|Bella Yella|Либерия|Liberia|LR|7.367|-9.983|219
BYM|MUBY||C.M. de Cespedes|Байамо|Bayamo|Куба|Cuba|CU|20.396331|-76.621494|62
BYN|ZMBH||Bayankhongor||Bayankhongor|Монголия|Mongolia|MN|46.163311|100.704086|1855
BYO|||Bonito Airport||Bonito|Бразилия|Brazil|BR|-4.55|-38.65|
BYQ|WALV|Бунью|Bunyu|Бунью|Bunyu|Индонезия|Indonesia|ID|3.455725|117.867372|36
BYR|EKLS||Laeso Airport||Laeso Island|Дания|Denmark|DK|57.277228|11.000083|8
BYS|KBYS||Bicycle Lake AAF||Fort Irwin|США|United States|US|35.280530|-116.630029|716
BYT|EIBN|Бантри|Bantry|Бантри|Bantry|Ирландия|Ireland|IE|51.668889|-9.484444|2
BYU|EDQD||Bindlacher-Berg|Байройт|Bayreuth|Германия|Germany|DE|49.984428|11.638569|488
BYW|KBYW||Blakely Island||Blakely Island|США|United States|US|48.578992|-122.826291|20
BYX|||Baniyala||Baniyala|Австралия|Australia|AU|-13.198056|136.226944|
BZA|MNBZ|Сан-Педро|San Pedro|Бонанса|Bonanza|Никарагуа|Nicaragua|NI|13.950|-84.600|183
BZB|||Bazaruto Island||Bazaruto Island|Мозамбик|Mozambique|MZ|-21.542778|35.472778|
BZC|SBBZ|Бузиос|Buzios|Бузиос|Buzios|Бразилия|Brazil|BR|-22.770972|-41.962861|3
BZD|YBRN||Balranald||Balranald|Австралия|Australia|AU|-34.623611|143.578333|64
BZE|MZBZ||Philip S.W.Goldson Int||Belize City|Белиз|Belize|BZ|17.539144|-88.308203|5
BZG|EPBY||Bydgoszcz I. J. Paderewski Airport|Быдгощ|Bydgoszcz|Польша|Poland|PL|53.096803|17.977669|72
BZH|||Bumi Hills||Bumi Hills|Зимбабве|Zimbabwe|ZW|-17.483333333333|28.516666666667|
BZI|LTBF|Балыкесир|Balikesir|Балыкесир|Balikesir|Турция|Turkey|TR|39.619258|27.925958|104
BZK|UUBP|Брянск|Briansk|Брянск|Briansk|Россия|Russian Federation|RU|53.214194|34.176447|202
BZL|VGBR|Барисал|Barisal|Барисал|Barisal|Бангладеш|Bangladesh|BD|22.801031|90.301164|7
BZM|EHWO|Вонсдрехт|Woensdrecht|Берген Оп Зоом|Bergen Op Zoom|Нидерланды|Netherlands|NL|51.449092|4.342031|19
BZN|KBZN||Gallatin Field||Bozeman|США|United States|US|45.777570|-111.152022|1363
BZO|LIPB|Болзано|Bolzano|Болзано|Bolzano|Италия|Italy|IT|46.460194|11.326383|240
BZP|YBIZ||Bizant||Bizant|Австралия|Australia|AU|-14.740278|144.119167|30
BZR|LFMU||Beziers Vias|Безьер|Beziers|Франция|France|FR|43.323428|3.353397|17
BZS|KBZS||Buzzards Pt S||Washington|США|United States|US|38.86333333|-77.01333333|
BZT|EGAC||Hinkles Ferry||Brazoria|США|United States|US|29.05|-95.566666666667|8
BZU|FZKJ||Buta||Buta|Демократическая республика Конго|Democratic Republic Of Congo|CD|2.818347|24.793706|420
BZV|FCBB||Maya Maya||Brazzaville|Конго|Congo|CG|-4.251700|15.253031|319
BZY|LUBL|Бельцы|Beltsy|Бельцы|Beltsy|Молдова|Moldova|MD|47.838114|27.781475|231
BZZ|EGVN||Raf Brize Norton|Оксфорд|Oxford|Великобритания|United Kingdom|GB|51.749964|-1.583617|88
CAA|MHCA|Катакамас|Catacamas|Катакамас|Catacamas|Гондурас|Honduras|HN|14.917|-85.900|454
CAB|FNCA|Кабинда|Cabinda|Кабинда|Cabinda|Ангола|Angola|AO|-5.596992|12.188353|20
CAC|SBCA||Cascavel||Cascavel|Бразилия|Brazil|BR|-25.000339|-53.500764|754
CAD|KCAD||Cadillac||Cadillac|США|United States|US|44.275333|-85.418917|398
CAE|KCAE||Metropolitan Airport||Columbia, SC|США|United States|US|33.938833|-81.119528|72
CAF|SWCA||Carauari||Carauari|Бразилия|Brazil|BR|-4.871519|-66.897458|108
CAG|LIEE||Elmas|Кальяри|Cagliari|Италия|Italy|IT|39.251469|9.054283|4
CAH|VVCM|Ка-Мау|Ca Mau|Ка-Мау|Ca Mau|Вьетнам|Vietnam|VN|9.188049|105.174721|3
CAI|HECA||Cairo International|Каир|Cairo|Египет|Egypt|EG|30.121944|31.405556|116
CAJ|SVCN|Канайма|Canaima|Канайма|Canaima|Венесуэла|Venezuela|VE|6.231989|-62.854433|442
CAK|KCAK||Akron/canton Regional||Akron/Canton, OH|США|United States|US|40.916083|-81.442194|374
CAL|EGEC||Machrihanish|Кемпбелтаун|Campbeltown|Великобритания|United Kingdom|GB|55.437222|-5.686389|13
CAM|SLCA|Камири|Camiri|Камири|Camiri|Боливия|Bolivia|BO|-20.006111|-63.527778|797
CAN|ZGGG||New Baiyun|Гуанчжоу|Guangzhou|Китай|China|CN|23.392436|113.298786|15
CAO|KCAO||Clayton||Clayton|США|United States|US|36.446152|-103.149969|1513
CAP|MTCH|Кеп-Гаитиен|Cap Haitien|Кеп-Гаитиен|Cap Haitien|Гаити|Haiti|HT|19.732989|-72.194739|3
CAQ|SKCU|Каукасиа|Caucasia|Каукасиа|Caucasia|Колумбия|Colombia|CO|7.968469|-75.198461|53
CAR|KCAR||Municipal||Caribou|США|United States|US|46.871500|-68.017917|191
CAS|GMMC||Anfa|Касабланка|Casablanca|Марокко|Morocco|MA|33.556981|-7.660492|62
CAT|MYCB||New Bight|Кэт-Айленд|Cat Island|Багамские острова|Bahamas|BS|24.315292|-75.452331|2
CAU|SNRU||Caruaru||Caruaru|Бразилия|Brazil|BR|-8.282392|-36.013503|576
CAV|FNCZ|Казомбо|Cazombo|Казомбо|Cazombo|Ангола|Angola|AO|-11.893056|22.916389|1128
CAW|SBCP||Bartolomeu Lisandro||Campos|Бразилия|Brazil|BR|-21.698333|-41.301669|17
CAX|EGNC|Карлисл|Carlisle|Карлисл|Carlisle|Великобритания|United Kingdom|GB|54.937500|-2.809167|58
CAY|SOCA||Rochambeau||Cayenne|Французская Гвиана|French Guiana|GF|4.819722|-52.361944|8
CAZ|YCBA||Cobar||Cobar|Австралия|Australia|AU|-31.538333|145.793889|221
CBA|MMVA||Corner Bay||Corner Bay|США|United States|US|57.716666666667|-135.2|
CBB|SLCB||J Wilsterman|Качабамба|Cochabamba|Боливия|Bolivia|BO|-17.421058|-66.177114|2548
CBC|||Cherrabun||Cherrabun|Австралия|Australia|AU|-18.917|125.550|152
CBD|VOCX|Кар-Никобар|Car Nicobar|Кар-Никобар|Car Nicobar|Индия|India|IN|9.152508|92.819628|2
CBE|KCBE||Wiley Ford||Cumberland|США|United States|US|39.615250|-78.761889|236
CBF|KCBF||Municipal||Council Bluffs|США|United States|US|41.260120|-95.758653|382
CBG|EGSC|Кембридж|Cambridge|Кембрдидж|Cambridge|Великобритания|United Kingdom|GB|52.205000|0.175000|14
CBH|DAOR||Leger||Bechar|Алжир|Algeria|DZ|31.650569|-2.253153|811
CBI|YCBN||Cape Barren Island||Cape Barren Island|Австралия|Australia|AU|-40.389722|148.015833|50
CBJ|MDCR|Кабо-Рожо|Cabo Rojo|Кабо-Рожо|Cabo Rojo|Доминиканская Республика|Dominican Republic|DO|17.928981|-71.644769|80
CBK|KCBK||Municipal||Colby|США|United States|US|39.427444|-101.046611|971
CBL|SVCB|Сьюдад-Боливар|Ciudad Bolivar|Сьюдад-Боливар|Ciudad Bolivar|Венесуэла|Venezuela|VE|8.121898|-63.537353|60
CBM|KCBM||Columbus AFB||Columbus|США|United States|US|33.645166|-88.445924|67
CBN|WICD||Penggung|Чиребон|Cirebon|Индонезия|Indonesia|ID|-6.756144|108.539672|27
